,Pressure(cm)_,Visibility(km)_,Distance(km)_,Wind_Speed(kmh)_,Precipitation(cm)_,index,State,ID,Source,Severity,Start_Time,End_Time,Start_Lat,End_Lat,Start_Lng,End_Lng,Side,City,Country,Humidity(%),Wind_Direction,Weather_Condition,Amenity,Bump,Crossing,Give_Way,Junction,No_Exit,Railway,Roundabout,Station,Traffic_Calming,Traffic_Signal,Turning_Loop,Sunrise_Sunset,Civil_Twilight,Nautical_Twilight,Astronomical_Twilight
0,48.34469393407184,6.437376023178674,0.8561710110827637,17.365633979975563,0.008975067395775256,1858313,CA,A-1858314,Bing,2,2016-10-13 08:21:38,2016-10-13 14:21:38,34.066969,34.06675,-117.448236,-117.45753,R,Fontana,US,81.0,Calm,Haze,False,False,False,False,False,False,False,False,False,False,False,False,Day,Day,Day,Day
1,48.2642267337821,16.093440057946687,0.016093440057946686,11.104446000000001,0.013794377358668177,349842,CA,A-349843,MapQuest,2,2017-03-17 18:38:04,2017-03-17 19:22:48,34.107079,,-117.91658,,L,Azusa,US,36.0,SSW,Clear,False,False,False,False,False,False,False,False,True,False,False,False,Day,Day,Day,Day
2,48.40906769430362,16.093440057946687,0.016093440057946686,17.917318666666667,0.00182190716272932,408655,CA,A-408656,MapQuest,2,2017-05-03 08:47:13,2017-05-03 09:18:00,34.350292,,-117.385628,,R,Hesperia,US,27.0,Calm,Clear,False,False,False,False,False,False,False,False,False,False,False,False,Day,Day,Day,Day
3,47.942357932623175,16.093440057946687,0.0,16.737136,0.013726757379929408,492950,CA,A-492951,MapQuest,2,2017-07-22 17:31:12,2017-07-22 18:00:55,38.21022,,-122.146347,,R,Fairfield,US,43.0,South,Clear,False,False,False,False,False,False,False,False,False,False,False,False,Day,Day,Day,Day
4,48.69874961534667,16.093440057946687,21.967545065132484,20.438617999999998,0.0703249020994885,916616,PA,A-916617,MapQuest,3,2018-09-24 16:34:34,2018-09-24 17:04:04,40.609047,,-79.947289,,L,Gibsonia,US,81.0,ESE,Overcast,False,False,False,False,False,False,False,False,False,False,False,False,Day,Day,Day,Day
5,48.19985297355032,16.093440057946687,0.0,14.805927999999998,0.004951827830566141,995727,CA,A-995728,MapQuest,3,2018-07-01 06:07:40,2018-07-01 06:37:18,37.315025,,-121.909073,,R,San Jose,US,83.0,ESE,Partly Cloudy,False,False,False,False,False,False,False,False,False,False,False,False,Day,Day,Day,Day
6,48.40906769430362,16.093440057946687,0.0,9.334171999999999,0.012392809200766183,810338,LA,A-810339,MapQuest,2,2018-10-03 09:42:01,2018-10-03 10:11:47,30.432772,,-91.057465,,L,Baton Rouge,US,79.0,East,Clear,False,False,False,False,False,False,False,False,False,False,False,False,Day,Day,Day,Day
7,47.733143211869866,0.32186880115893374,2.0857098315098903,21.507234166428233,0.08046720028973343,1987527,WA,A-1987528,Bing,3,2019-02-11 17:17:13,2019-02-11 17:47:07,47.634443,47.651586,-122.94395,-122.932633,R,Brinnon,US,93.0,North,Snow,False,False,False,False,False,False,False,False,False,False,False,False,Day,Day,Day,Day
8,48.40906769430362,16.093440057946687,0.9736531235057744,18.50741,0.0,1947403,NY,A-1947404,Bing,2,2017-06-28 20:33:59,2017-06-29 02:33:59,40.73852,40.73986,-73.80653000000002,-73.81796,R,Fresh Meadows,US,37.0,West,Mostly Cloudy,False,False,False,False,True,False,False,False,False,False,False,False,Night,Day,Day,Day
9,48.103292333202646,16.093440057946687,3.106033846773617,18.50741,0.048280320173840055,1514503,NY,A-1514504,MapQuest,3,2017-11-22 09:31:19,2017-11-22 10:01:08,40.98724,,-73.68073299999998,,R,Rye,US,93.0,NW,Mostly Cloudy,False,False,False,False,False,False,False,False,False,False,False,False,Day,Day,Day,Day
10,48.39297425424568,16.093440057946687,0.8320308509958436,11.748182,0.01103225946160795,2151890,DC,A-2151891,Bing,2,2018-03-26 08:14:46,2018-03-26 14:14:46,38.87107,38.878131,-76.98888000000002,-76.992062,R,Washington,US,,North,,False,False,False,False,False,False,False,False,False,False,False,False,Day,Day,Day,Day
11,48.48953489459336,16.093440057946687,0.0,11.104446000000001,0.01919578941980832,1220827,TX,A-1220828,MapQuest,3,2018-04-24 09:49:04,2018-04-24 10:48:39,32.913105,,-96.873436,,R,Dallas,US,44.0,NNE,Clear,False,False,False,False,False,False,False,False,False,False,False,False,Day,Day,Day,Day
12,48.39297425424568,6.437376023178674,0.0,14.805927999999998,0.19312128069536022,1551988,MI,A-1551989,MapQuest-Bing,3,2017-10-11 06:56:53,2017-10-11 07:26:32,42.432487,,-83.094902,,R,Highland Park,US,93.0,NE,Rain,False,False,False,False,False,False,False,False,False,False,False,False,Night,Night,Day,Day
13,48.006731692854956,16.093440057946687,0.0,9.334172,0.021457920077262247,904090,AZ,A-904091,MapQuest,2,2018-09-17 06:55:02,2018-09-17 07:24:41,33.219276,,-111.789261,,R,Chandler,US,48.0,Calm,Clear,False,False,True,False,False,False,False,False,False,False,True,False,Day,Day,Day,Day
14,48.11938577326059,16.093440057946687,0.0,16.737136,0.0801919814095359,947765,VA,A-947766,MapQuest,3,2018-08-08 16:13:15,2018-08-08 16:42:57,37.547642,,-77.431381,,R,Richmond,US,46.0,West,Partly Cloudy,False,False,False,False,False,False,False,False,False,False,False,False,Day,Day,Day,Day
15,48.36078737412979,16.093440057946687,0.0,18.50741,0.008000385297498797,80680,CA,A-80681,MapQuest,2,2016-09-30 12:32:13,2016-09-30 13:02:00,33.984337,,-117.842659,,R,Diamond Bar,US,26.0,West,Clear,False,False,False,False,False,False,False,False,False,False,False,False,Day,Day,Day,Day
16,47.92626449256523,16.093440057946687,8.465149838826612,22.208892000000002,0.010676006809080903,796072,OH,A-796073,MapQuest,2,2018-11-27 04:40:45,2018-11-27 05:24:41,40.993092,,-81.662689,,R,Barberton,US,79.0,WNW,Overcast,False,False,False,False,True,False,False,False,False,False,False,False,Night,Night,Night,Night
17,48.48953489459336,16.093440057946687,0.6694871064105821,21.27850150557456,0.0,2179241,CA,A-2179242,Bing,2,2018-01-24 08:24:14,2018-01-24 14:24:14,33.766040000000004,33.76598,-117.9554,-117.96265,R,Garden Grove,US,70.0,Calm,Partly Cloudy,False,False,False,False,True,False,False,False,False,False,False,False,Day,Day,Day,Day
18,48.28032017384005,16.093440057946687,0.0,35.244546,0.03217653070501565,1281054,NV,A-1281055,MapQuest,2,2018-03-23 05:42:53,2018-03-23 06:12:38,39.566311,,-119.486832,,R,Reno,US,38.0,WSW,Clear,False,False,False,False,False,False,False,False,False,False,False,False,Night,Night,Night,Day
19,48.103292333202646,16.093440057946687,0.0,13.035654,0.0010495720803062822,1053826,CA,A-1053827,MapQuest-Bing,3,2018-06-03 01:43:44,2018-06-03 02:13:27,37.581242,,-122.325409,,R,San Mateo,US,67.0,WNW,Clear,False,False,False,False,False,False,False,False,False,False,False,False,Night,Night,Night,Night
20,48.42516113436157,16.093440057946687,0.016093440057946686,7.402963999999999,0.0013411200048288907,403138,CA,A-403139,MapQuest,3,2017-04-10 02:57:07,2017-04-10 03:41:40,34.507729,,-117.322975,,R,Victorville,US,56.0,SSW,Clear,False,False,False,False,False,False,False,False,False,False,False,False,Night,Night,Night,Night
21,48.24813329372416,16.093440057946687,0.8030626588915396,11.029486777241845,0.0,1983721,CA,A-1983722,Bing,2,2019-02-05 18:05:15,2019-02-05 18:34:57,38.79095,38.79667,-121.29229,-121.29794,R,Roseville,US,57.0,Calm,Clear,False,False,False,False,False,False,False,False,False,False,False,False,Night,Night,Day,Day
22,48.24813329372416,16.093440057946687,0.016093440057946686,5.63269,0.0,319497,CA,A-319498,MapQuest,2,2017-02-09 17:49:24,2017-02-09 18:33:48,33.940891,,-117.261436,,R,Moreno Valley,US,100.0,WNW,Clear,False,False,False,False,False,False,False,False,False,False,False,False,Night,Day,Day,Day
23,48.42516113436157,16.093440057946687,0.0,7.402963999999999,0.0,672944,AZ,A-672945,MapQuest,2,2019-01-24 14:47:35,2019-01-24 15:17:21,33.653286,,-112.36895,,R,Surprise,US,22.0,SE,Clear,False,False,False,False,False,False,False,False,False,False,False,False,Day,Day,Day,Day
24,48.16766609343443,14.484096052152017,0.0,18.50741,0.02747090512199034,972245,TX,A-972246,MapQuest,2,2018-08-20 08:53:25,2018-08-20 09:52:56,31.85181,,-106.44014,,R,El Paso,US,55.0,ENE,Clear,False,False,False,False,False,False,False,False,False,False,False,False,Day,Day,Day,Day
25,48.18375953349238,16.093440057946687,0.0,14.805927999999998,5.501115339329649e-05,1606050,PA,A-1606051,MapQuest,2,2017-09-07 19:09:54,2017-09-07 19:39:02,40.67847800000001,,-75.34236899999998,,R,Bethlehem,US,52.0,WSW,Clear,False,False,False,False,False,False,False,False,False,False,False,False,Day,Day,Day,Day
26,49.11717905685328,16.093440057946687,0.0,5.63269,0.010781448789069637,647322,PA,A-647323,MapQuest,3,2019-01-12 12:13:20,2019-01-12 12:58:04,40.279301,,-76.818871,,R,Harrisburg,US,34.0,ESE,Clear,False,False,False,False,False,False,False,False,False,False,False,False,Day,Day,Day,Day
27,47.92626449256523,16.093440057946687,0.0,22.208892000000002,0.0,820548,CA,A-820549,MapQuest,2,2018-10-08 13:40:23,2018-10-08 14:24:43,37.654999,,-122.406975,,R,South San Francisco,US,38.0,WNW,Clear,False,False,False,False,False,False,False,False,False,False,False,False,Day,Day,Day,Day
28,48.55390865482515,16.093440057946687,0.016093440057946686,16.737136,0.010728959982096543,333831,TX,A-333832,MapQuest,2,2017-02-04 14:35:41,2017-02-04 15:05:24,29.810572,,-95.485771,,L,Houston,US,67.0,East,Overcast,False,False,False,False,False,False,False,False,False,False,False,False,Day,Day,Day,Day
29,48.586095534941045,16.093440057946687,0.0,9.334171999999999,6.625393647764305e-05,745070,NC,A-745071,MapQuest,3,2018-11-03 15:50:12,2018-11-03 16:21:00,35.338463,,-80.848946,,R,Charlotte,US,35.0,Variable,Partly Cloudy,False,False,False,False,False,False,False,False,False,False,False,False,Day,Day,Day,Day
30,48.28032017384005,16.093440057946687,0.0321868793965166,20.438617999999998,0.02414016059573127,470895,IL,A-470896,MapQuest,2,2017-06-02 17:22:15,2017-06-02 18:06:57,41.845909000000006,,-87.983032,,R,Oak Brook,US,24.0,East,Partly Cloudy,False,False,False,False,False,False,False,False,False,False,True,False,Day,Day,Day,Day
31,47.92626449256523,16.093440057946687,0.0,11.104446000000001,0.0,911715,AZ,A-911716,MapQuest,2,2018-09-20 14:51:34,2018-09-20 15:21:16,33.370487,,-112.585022,,R,Buckeye,US,34.0,SSW,Clear,False,False,False,False,False,False,False,False,False,False,False,False,Day,Day,Day,Day
32,48.21594641360827,16.093440057946687,0.0,20.438617999999998,0.0,1483736,VA,A-1483737,MapQuest,2,2017-11-06 13:06:06,2017-11-06 13:50:58,37.533745,,-77.43115999999998,,L,Richmond,US,71.0,SW,Mostly Cloudy,False,False,False,False,False,False,False,False,False,False,False,False,Day,Day,Day,Day
33,47.652676011580134,16.093440057946687,0.0,37.01482,0.0,689585,NY,A-689586,MapQuest,2,2018-12-03 08:52:18,2018-12-03 09:32:00,43.115303,,-77.622162,,R,Rochester,US,80.0,West,Overcast,False,False,False,False,False,False,False,False,False,False,False,False,Day,Day,Day,Day
34,48.76312337557846,3.218688011589337,0.0,9.334171999999999,0.048280320173840055,771260,AL,A-771261,MapQuest,3,2018-11-14 07:52:12,2018-11-14 08:21:59,30.595697,,-88.154442,,R,Mobile,US,96.0,NNW,Light Rain,False,False,False,False,False,False,False,False,False,False,False,False,Day,Day,Day,Day
35,48.570002094883094,16.093440057946687,0.003218688011589337,7.402963999999999,0.00922539413550157,2064064,OR,A-2064065,Bing,2,2018-10-18 06:59:25,2018-10-18 10:59:25,45.53252,45.532499,-122.63282,-122.632838,R,Portland,US,93.0,West,Partly Cloudy,False,False,False,False,False,False,False,False,False,False,False,False,Night,Night,Day,Day
36,48.36078737412979,12.874752046357347,0.9157167392971663,9.334171999999999,0.02919496679061207,1814686,LA,A-1814687,Bing,3,2016-06-27 09:38:58,2016-06-27 15:38:58,29.983390000000004,29.97768,-90.05442,-90.06128000000002,R,New Orleans,US,77.0,SW,Partly Cloudy,False,False,False,False,True,False,False,False,False,False,False,False,Day,Day,Day,Day
37,48.087198893144695,16.093440057946687,0.0,33.313338,0.0,1390755,WA,A-1390756,MapQuest,2,2018-01-19 16:35:50,2018-01-19 17:35:19,48.114883,,-122.162346,,L,Marysville,US,89.0,SE,Overcast,False,False,False,False,False,False,False,False,False,False,False,False,Day,Day,Day,Day
38,47.877984172391386,16.093440057946687,14.572609972470723,24.1401,0.11617754164998331,1994741,TN,A-1994742,Bing,4,2019-02-23 23:29:17,2019-02-23 23:58:50,35.81751,35.83863,-88.24874,-88.08921,R,Wildersville,US,53.0,WSW,Clear,False,False,False,False,False,False,False,False,False,False,False,False,Night,Night,Night,Night
39,48.28032017384005,14.484096052152017,0.0,16.737136,0.040544261938792216,583861,MI,A-583862,MapQuest,2,2019-02-07 05:57:06,2019-02-07 06:56:39,42.94421,,-83.692131,,L,Grand Blanc,US,96.0,East,Overcast,False,False,False,False,False,False,False,False,False,False,True,False,Night,Night,Night,Night
40,48.21594641360827,1.931212806953602,0.0,7.402963999999999,0.048280320173840055,780333,PA,A-780334,MapQuest,2,2018-11-19 16:22:26,2018-11-19 16:52:08,41.039482,,-78.398155,,R,Clearfield,US,100.0,North,Light Rain,False,False,False,False,False,False,False,False,False,False,False,False,Day,Day,Day,Day
41,47.60439569140629,16.093440057946687,0.0,25.910374,0.04175595166290638,600344,OK,A-600345,MapQuest,2,2019-02-14 07:03:31,2019-02-14 07:33:17,35.507751,,-97.618942,,L,Warr Acres,US,44.0,SW,Clear,False,False,True,False,False,False,False,False,False,False,True,False,Night,Day,Day,Day
42,48.232039853666215,4.828032017384006,0.0,14.805927999999998,0.08901683942612283,1188318,TX,A-1188319,MapQuest,2,2018-04-09 11:44:23,2018-04-09 12:29:05,29.356684,,-98.542297,,L,San Antonio,US,94.0,NE,Light Rain,False,False,False,False,False,False,False,False,False,False,False,False,Day,Day,Day,Day
43,48.19985297355032,16.093440057946687,0.0,14.805927999999998,0.004951827830566141,1160599,CA,A-1160600,MapQuest,2,2018-05-24 16:04:50,2018-05-24 16:34:34,38.475349,,-121.423851,,R,Sacramento,US,48.0,SSW,Clear,False,False,False,False,False,False,False,False,False,False,False,False,Day,Day,Day,Day
44,48.296413613898004,16.093440057946687,0.016093440057946686,7.402963999999999,0.02950463963511409,36131,CA,A-36132,MapQuest,2,2016-04-26 00:21:52,2016-04-26 01:21:52,38.700447,,-121.244347,,R,Orangevale,US,54.0,NW,Clear,False,False,False,False,False,False,False,False,False,False,False,False,Night,Night,Night,Night
45,48.31250705395595,16.093440057946687,0.0,13.035654,0.016093440284085016,302242,TX,A-302243,MapQuest,3,2016-07-01 10:58:23,2016-07-01 11:43:23,32.770901,,-96.810661,,R,Dallas,US,50.0,SSW,Partly Cloudy,False,False,False,False,False,False,False,False,False,False,False,False,Day,Day,Day,Day
46,48.296413613898004,16.093440057946687,0.0,14.805927999999998,0.02574950352284613,174872,IL,A-174873,MapQuest,2,2016-08-02 18:25:37,2016-08-02 19:25:37,41.9795,,-88.13834399999998,,L,Hanover Park,US,58.0,East,Mostly Cloudy,False,False,False,False,False,False,False,False,False,False,False,False,Day,Day,Day,Day
47,48.2642267337821,16.093440057946687,0.0,16.0934,0.0,750741,NC,A-750742,MapQuest,2,2018-11-06 20:50:24,2018-11-06 21:20:07,35.826065,,-78.58638,,L,Raleigh,US,100.0,Calm,Scattered Clouds,False,False,False,False,False,False,False,False,False,False,False,False,Night,Night,Night,Night
48,49.21373969720096,16.093440057946687,0.6147694102135633,20.438617999999998,0.0054054724349069235,2170662,NY,A-2170663,Bing,3,2018-01-07 07:12:40,2018-01-07 13:12:40,40.74792,40.7501,-73.76013,-73.75341999999998,R,Oakland Gardens,US,60.0,NW,Partly Cloudy,False,False,False,False,True,False,False,False,False,False,False,False,Night,Day,Day,Day
49,48.521721774709256,16.093440057946687,0.016093440057946686,15.503308666666667,0.01600182570616663,399513,CA,A-399514,MapQuest,2,2017-04-21 12:10:40,2017-04-21 12:39:59,37.495079,,-122.229012,,R,Redwood City,US,37.0,Calm,Clear,False,False,False,False,True,False,False,False,False,False,False,False,Day,Day,Day,Day
50,48.28032017384005,9.656064034768011,0.9446849314014706,13.035654,0.06437376023178674,2008222,OR,A-2008223,Bing,2,2019-01-18 15:32:31,2019-01-18 19:32:31,44.426256,44.41962,-121.877935,-121.870511,R,Blue River,US,90.0,South,Light Rain,False,False,False,False,False,False,False,False,False,False,False,False,Day,Day,Day,Day
51,48.40906769430362,16.093440057946687,0.0,9.334171999999999,0.012392809200766183,1712331,MI,A-1712332,MapQuest,3,2017-08-24 08:31:14,2017-08-24 09:00:25,42.337341,,-83.124863,,R,Detroit,US,64.0,North,Clear,False,False,False,False,False,False,False,False,False,False,False,False,Day,Day,Day,Day
52,48.2642267337821,16.093440057946687,0.0,7.402963999999999,0.027588754717336354,1140821,CA,A-1140822,MapQuest,2,2018-05-15 05:59:58,2018-05-15 06:29:19,34.03046,,-118.154221,,R,Los Angeles,US,78.0,East,Mostly Cloudy,False,False,False,False,False,False,False,False,False,False,False,False,Day,Day,Day,Day
53,48.47344145453542,16.093440057946687,0.043452288156456055,14.805927999999998,0.0,1798290,IL,A-1798291,Bing,2,2016-10-14 18:05:54,2016-10-15 00:05:54,42.36332,42.36361,-87.93021999999998,-87.92987,L,Gurnee,US,69.0,SSE,Clear,False,False,False,False,False,False,False,False,False,False,False,False,Day,Day,Day,Day
54,48.50562833465131,16.093440057946687,0.016093440057946686,13.035654,0.016648386448343627,355194,FL,A-355195,MapQuest,2,2017-02-27 16:11:03,2017-02-27 16:39:59,26.542093,,-81.871414,,R,Fort Myers,US,51.0,West,Mostly Cloudy,False,False,False,False,False,False,False,False,False,False,True,False,Day,Day,Day,Day
55,48.0550120130288,12.874752046357347,0.0,5.63269,0.011822545937032669,258379,MD,A-258380,MapQuest,3,2016-07-08 06:58:35,2016-07-08 07:43:35,39.600189,,-77.68244200000002,,R,Hagerstown,US,79.0,SSE,Clear,False,False,False,False,False,False,False,False,False,False,False,False,Day,Day,Day,Day
56,47.958451372681125,16.093440057946687,0.016093439698226113,20.438617999999998,0.3110176532533201,440492,CA,A-440493,MapQuest,3,2017-05-19 16:13:25,2017-05-19 16:58:10,34.068184,,-117.385582,,R,Bloomington,US,18.0,West,Clear,False,False,False,False,False,False,False,False,False,False,False,False,Day,Day,Day,Day
57,48.47344145453542,16.093440057946687,0.0,9.334171999999999,0.0,1183246,NJ,A-1183247,MapQuest,2,2018-04-06 07:02:36,2018-04-06 07:32:20,40.876255,,-73.983879,,R,Englewood,US,48.0,SE,Overcast,False,False,False,False,False,False,False,False,False,False,True,False,Day,Day,Day,Day
58,48.650469295172826,16.093440057946687,0.0,5.63269,0.0018749639403168132,1509450,NC,A-1509451,MapQuest,2,2017-11-20 18:00:16,2017-11-20 18:29:52,35.154953000000006,,-80.8246,,R,Charlotte,US,41.0,SW,Mostly Cloudy,False,False,False,False,False,False,False,False,False,False,False,False,Night,Night,Day,Day
59,48.19985297355032,16.093440057946687,0.0,9.334171999999999,0.0,1226253,TX,A-1226254,MapQuest,2,2018-04-26 19:48:39,2018-04-26 20:18:28,32.864101,,-96.66571,,R,Dallas,US,44.0,NE,Mostly Cloudy,False,False,False,False,False,False,False,False,False,False,True,False,Day,Day,Day,Day
60,48.95624465627382,16.093440057946687,0.016093440057946686,14.805927999999998,0.01587595223907066,322249,FL,A-322250,MapQuest,3,2017-02-10 10:06:29,2017-02-10 10:51:03,28.002211,,-82.327271,,R,Tampa,US,42.0,NE,Clear,False,False,False,False,False,False,False,False,False,False,False,False,Day,Day,Day,Day
61,48.13547921331853,14.484096052152017,0.0,14.805927999999998,0.0,33772,CA,A-33773,MapQuest,3,2016-04-09 01:33:16,2016-04-09 02:18:16,37.598789,,-122.060852,,R,Union City,US,93.0,NW,Light Rain,False,False,False,False,False,False,False,False,False,False,False,False,Night,Night,Night,Night
62,48.69874961534667,16.093440057946687,0.016093440057946686,11.104446000000001,0.0,278439,TX,A-278440,MapQuest,2,2016-11-11 11:17:30,2016-11-11 11:47:20,29.850731,,-95.528725,,R,Houston,US,65.0,North,Clear,False,False,False,False,False,False,False,False,False,False,True,False,Day,Day,Day,Day
63,48.376880814187736,16.093440057946687,0.0321868793965166,22.208892000000002,0.009819725924231438,472843,MI,A-472844,MapQuest,2,2017-06-02 15:22:22,2017-06-02 15:52:13,42.92704000000001,,-85.599281,,L,Grand Rapids,US,24.0,WNW,Mostly Cloudy,False,False,False,False,False,False,False,False,False,False,False,False,Day,Day,Day,Day
64,48.34469393407184,4.828032017384006,0.0,5.63269,0.07299524524505019,1345122,MN,A-1345123,MapQuest,3,2018-02-23 06:20:11,2018-02-23 06:49:45,45.124252,,-93.336006,,R,Minneapolis,US,92.0,West,Overcast,False,False,False,False,False,False,False,False,False,False,False,False,Night,Night,Day,Day
65,48.11938577326059,16.093440057946687,0.0,11.104446000000001,0.0,43628,CA,A-43629,MapQuest,2,2016-06-23 14:14:40,2016-06-23 15:14:40,34.17054,,-118.501099,,R,Encino,US,39.0,ESE,Clear,False,False,False,False,False,False,False,False,False,False,False,False,Day,Day,Day,Day
66,48.2642267337821,16.093440057946687,0.016093440057946686,13.035654,0.028033734142003247,349355,CA,A-349356,MapQuest,3,2017-03-15 16:25:57,2017-03-15 17:10:36,34.231709,,-118.404099,,R,Sun Valley,US,18.0,West,Clear,False,False,False,False,False,False,False,False,False,False,False,False,Day,Day,Day,Day
67,48.21594641360827,11.26540804056268,0.0,8.690436,0.1793269143020939,1655710,CA,A-1655711,MapQuest,3,2017-09-28 08:32:03,2017-09-28 09:16:43,34.02623,,-117.333466,,R,Colton,US,25.0,Calm,Clear,False,False,False,False,False,False,False,False,False,False,False,False,Day,Day,Day,Day
68,48.55390865482515,16.093440057946687,0.0,11.748182,0.015911249433836205,42576,CA,A-42577,MapQuest,3,2016-06-18 07:26:28,2016-06-18 10:57:00,37.723503,,-121.940369,,R,San Ramon,US,75.0,Calm,Clear,False,False,False,False,False,False,False,False,False,False,False,False,Day,Day,Day,Day
69,48.2642267337821,16.093440057946687,0.0,11.104446000000001,0.000728762865091728,1648110,SC,A-1648111,MapQuest,2,2017-09-26 08:23:08,2017-09-26 09:06:00,34.892540000000004,,-82.160202,,R,Duncan,US,76.0,NNE,Clear,False,False,False,False,False,False,False,False,False,False,False,False,Day,Day,Day,Day
70,48.3286004940139,15.020544054083574,0.0,9.924263333333334,0.021457920077262247,550018,IA,A-550019,MapQuest,2,2019-03-23 13:24:54,2019-03-23 18:45:14,42.965881,,-96.023788,,R,Alton,US,,,,False,False,False,False,False,False,False,False,False,False,False,False,Day,Day,Day,Day
71,48.45734801447747,16.093440057946687,0.0,9.334171999999999,6.096027973989967e-05,753740,NC,A-753741,MapQuest,2,2018-11-07 08:04:00,2018-11-07 08:49:00,35.143532,,-80.973846,,R,Charlotte,US,96.0,North,Partly Cloudy,False,False,False,False,False,False,False,False,False,False,False,False,Day,Day,Day,Day
72,49.06889873667944,16.093440057946687,0.9012326432450144,20.438617999999998,0.0,204141,CT,A-204142,MapQuest,2,2016-11-07 09:48:47,2016-11-07 10:17:56,41.180119,,-73.194717,,R,Bridgeport,US,46.0,NE,Clear,False,False,False,False,False,False,False,False,False,False,False,False,Day,Day,Day,Day
73,48.90796433609998,16.093440057946687,0.0,5.63269,0.014614773548575988,1231010,IL,A-1231011,MapQuest,3,2018-04-29 08:21:54,2018-04-29 09:06:27,41.873196,,-87.908539,,R,Hillside,US,53.0,Variable,Clear,False,False,False,False,False,False,False,False,False,False,False,False,Day,Day,Day,Day
74,48.006731692854956,16.093440057946687,0.0,13.035654,0.04826004308466303,1160430,TX,A-1160431,MapQuest,2,2018-05-24 15:12:38,2018-05-24 15:42:29,31.690126,,-106.330826,,R,El Paso,US,11.0,SSE,Scattered Clouds,False,False,False,False,False,False,False,False,False,False,False,False,Day,Day,Day,Day
75,48.714843055404614,14.484096052152017,0.0,24.1401,0.012275708929881446,569255,NY,A-569256,MapQuest,2,2019-01-31 08:40:10,2019-01-31 09:21:00,43.151402,,-77.631241,,R,Rochester,US,69.0,SW,Partly Cloudy,False,False,False,False,False,False,False,False,False,False,False,False,Day,Day,Day,Day
76,48.3286004940139,15.020544054083574,0.0,9.924263333333334,0.021457920077262247,91703,CA,A-91704,MapQuest,2,2016-08-22 21:19:11,2016-08-22 22:04:11,34.151009,,-118.152626,,R,Pasadena,US,,,,False,False,False,False,False,False,False,False,False,False,False,False,Night,Night,Night,Night
77,48.07110545308675,16.093440057946687,2.1983639119155174,17.573944703998933,0.032254145963173476,1793193,GA,A-1793194,Bing,3,2016-09-27 19:49:28,2016-09-28 01:49:28,33.89895,33.88677,-84.24793000000003,-84.26668000000002,R,Atlanta,US,90.0,Calm,Clear,False,False,False,False,False,False,False,False,False,False,False,False,Night,Day,Day,Day
78,48.296413613898004,8.046720028973343,0.0,7.56822268985621,0.311139849864318,1135815,NY,A-1135816,MapQuest,2,2018-05-14 06:23:30,2018-05-14 06:53:18,42.085281,,-73.826454,,R,Germantown,US,94.0,Calm,Overcast,False,False,False,False,False,False,False,False,False,False,False,False,Day,Day,Day,Day
79,48.521721774709256,16.093440057946687,0.016093440057946686,5.63269,0.024653779685093333,15448,CA,A-15449,MapQuest,3,2016-11-07 03:18:42,2016-11-07 04:03:22,37.617496,,-122.074219,,R,Union City,US,78.0,ENE,Clear,False,False,False,False,False,False,False,False,False,False,False,False,Night,Night,Night,Night
80,48.13547921331853,9.656064034768011,0.0,18.50741,0.0,594452,GA,A-594453,MapQuest,3,2019-02-12 17:38:42,2019-02-12 18:23:23,33.912136,,-84.379242,,R,Atlanta,US,93.0,WSW,Light Rain,False,False,False,False,False,False,False,False,False,False,False,False,Day,Day,Day,Day
81,48.087198893144695,16.093440057946687,0.0,13.035654,0.004814657540540026,1078528,IL,A-1078529,MapQuest,2,2018-06-15 19:07:19,2018-06-15 19:52:09,41.90586500000001,,-87.965073,,L,Addison,US,48.0,SE,Scattered Clouds,False,False,False,False,False,False,False,False,False,False,True,False,Day,Day,Day,Day
82,48.2642267337821,16.093440057946687,0.0,11.104446000000001,0.0,1046358,GA,A-1046359,MapQuest,3,2018-07-30 16:00:13,2018-07-30 16:29:29,32.881832,,-83.668808,,R,Macon,US,94.0,ESE,Clear,False,False,False,False,True,False,False,False,False,False,False,False,Day,Day,Day,Day
83,48.296413613898004,16.093440057946687,0.0,8.690436,0.0,1449636,MD,A-1449637,MapQuest,2,2017-12-18 20:34:46,2017-12-18 21:04:17,38.945377,,-76.858414,,R,Hyattsville,US,76.0,Calm,Overcast,False,False,False,False,False,False,False,False,False,False,False,False,Night,Night,Night,Night
84,48.47344145453542,16.093440057946687,0.0,11.104446000000001,0.010799544834810708,555123,WA,A-555124,MapQuest,2,2019-03-26 08:40:36,2019-03-26 10:28:09,47.463604,,-122.29103899999998,,R,Seattle,US,76.0,SW,Mostly Cloudy,False,False,False,False,False,False,False,False,False,False,False,False,Day,Day,Day,Day
85,48.2642267337821,16.093440057946687,39.010498332083934,35.244546,0.06552364126694599,986482,NY,A-986483,MapQuest,3,2018-08-28 10:14:50,2018-08-28 10:42:57,42.950138,,-78.698959,,R,Buffalo,US,67.0,SW,Mostly Cloudy,False,False,False,False,False,False,False,False,False,False,False,False,Day,Day,Day,Day
86,48.63437585511488,16.093440057946687,0.0,14.805927999999998,0.003439740214264904,1396555,TX,A-1396556,MapQuest,3,2018-01-23 16:35:15,2018-01-23 17:04:46,29.769724,,-95.341293,,R,Houston,US,17.0,NNW,Clear,False,False,False,False,False,False,False,False,False,False,False,False,Day,Day,Day,Day
87,48.586095534941045,16.093440057946687,0.0,11.104446000000001,4.6290071852001554e-05,1064152,MD,A-1064153,MapQuest,3,2018-06-08 14:00:20,2018-06-08 14:30:04,39.605312,,-77.728989,,R,Hagerstown,US,49.0,West,Scattered Clouds,False,False,False,False,True,False,False,False,False,False,False,False,Day,Day,Day,Day
88,48.60218897499899,16.093440057946687,0.0,10.567999333333333,0.0,549541,CA,A-549542,MapQuest,2,2019-03-22 08:12:25,2019-03-22 08:56:53,32.717773,,-117.11425,,R,San Diego,US,77.0,Calm,Partly Cloudy,False,False,False,False,False,False,False,False,False,False,False,False,Day,Day,Day,Day
89,48.521721774709256,16.093440057946687,0.0,5.63269,0.03242708063669773,870650,NC,A-870651,MapQuest,2,2018-08-31 12:42:00,2018-08-31 13:11:56,35.040527000000004,,-80.861526,,R,Pineville,US,61.0,South,Scattered Clouds,False,False,False,False,False,False,False,False,False,False,True,False,Day,Day,Day,Day
90,48.18375953349238,16.093440057946687,0.0,9.334171999999999,0.0,483331,PA,A-483332,MapQuest,2,2017-06-30 15:01:14,2017-06-30 15:30:52,39.974255,,-76.680115,,R,York,US,50.0,Variable,Clear,False,False,False,False,False,False,False,False,False,False,True,False,Day,Day,Day,Day
91,48.47344145453542,16.093440057946687,0.0,9.924263333333334,0.005364480019315562,1141178,NY,A-1141179,MapQuest,2,2018-05-16 07:40:47,2018-05-16 08:10:20,41.289139,,-73.928719,,R,Peekskill,US,100.0,Calm,Mostly Cloudy,False,False,False,False,True,False,False,False,False,False,False,False,Day,Day,Day,Day
92,48.3286004940139,15.020544054083574,0.0,9.924263333333334,0.021457920077262247,725255,MO,A-725256,MapQuest,3,2018-12-21 07:07:52,2018-12-21 07:36:30,38.940601,,-94.582756,,R,Kansas City,US,,North,,False,False,False,False,False,False,False,False,False,False,False,False,Night,Day,Day,Day
93,48.376880814187736,16.093440057946687,0.0,5.63269,2.065036023015041e-05,1523102,IL,A-1523103,MapQuest,2,2017-11-27 09:35:28,2017-11-27 10:35:18,41.742737,,-88.04046600000002,,R,Woodridge,US,72.0,SSE,Clear,False,False,False,False,False,False,False,False,False,False,False,False,Day,Day,Day,Day
94,48.19985297355032,16.093440057946687,0.2687604489677096,15.78229473345467,0.0,1935921,CA,A-1935922,Bing,2,2017-05-19 05:33:04,2017-05-19 11:33:04,33.890884,33.893294,-117.64654,-117.64678,R,Corona,US,58.0,North,Clear,False,False,False,False,False,False,False,False,False,False,False,False,Night,Day,Day,Day
95,48.40906769430362,16.093440057946687,3.6371174530959505,13.035654,0.010496429072586118,2154002,FL,A-2154003,Bing,3,2018-03-30 13:41:18,2018-03-30 19:41:18,28.468290000000003,28.495483,-82.26907,-82.24838000000003,R,Brooksville,US,58.0,South,Overcast,False,False,False,False,False,False,False,False,False,False,False,False,Day,Day,Day,Day
96,48.50562833465131,16.093440057946687,0.06276441622599208,25.910374,0.014528849968954417,2219429,IL,A-2219430,Bing,3,2017-09-01 15:58:30,2017-09-01 21:58:30,41.847694,41.84713,-87.91923,-87.91922,R,Elmhurst,US,49.0,NNE,Mostly Cloudy,False,False,False,False,False,False,False,False,False,False,False,False,Day,Day,Day,Day
97,48.31250705395595,12.874752046357349,0.016093440057946686,14.859572666666667,0.024047313409844617,229205,MD,A-229206,MapQuest,2,2016-12-05 05:48:03,2016-12-05 06:32:43,39.297791,,-76.623367,,L,Baltimore,US,85.0,North,,False,False,False,False,False,False,False,False,True,False,False,False,Night,Night,Night,Day
98,48.006731692854956,16.093440057946687,0.0,22.208892000000002,0.0,885977,CA,A-885978,MapQuest,2,2018-09-07 16:45:37,2018-09-07 17:15:37,34.018864,,-117.504562,,R,Jurupa Valley,US,32.0,West,Clear,False,False,False,False,False,False,False,False,False,False,False,False,Day,Day,Day,Day
99,48.90796433609998,16.093440057946687,0.10621670438244812,7.402963999999999,0.007754147661546415,2166020,WA,A-2166021,Bing,2,2018-02-23 10:47:51,2018-02-23 16:47:51,47.682147,47.682408,-117.277331,-117.275973,R,Spokane,US,65.0,SW,Partly Cloudy,False,False,False,False,False,False,False,False,False,False,False,False,Day,Day,Day,Day
100,48.18375953349238,16.093440057946687,0.6340815382830994,14.805927999999998,0.0,2074714,CA,A-2074715,Bing,4,2018-09-07 14:23:43,2018-09-07 14:53:25,33.709353,33.71102,-117.318978,-117.31242,R,Lake Elsinore,US,27.0,South,Clear,False,False,False,False,False,False,False,False,False,False,False,False,Day,Day,Day,Day
101,48.795310255694346,6.5471044205324285,0.016093440057946686,16.737136,0.048076914902568435,65701,CA,A-65702,MapQuest,2,2017-01-26 17:55:04,2017-01-26 18:40:12,33.872292,,-117.688065,,R,Anaheim,US,41.0,ENE,Clear,False,False,False,False,False,False,False,False,False,False,False,False,Night,Night,Day,Day
102,48.19985297355032,4.828032017384006,0.016093440057946686,22.208892000000002,0.09656064034768011,56658,CA,A-56659,MapQuest,2,2016-12-15 20:23:07,2016-12-15 21:07:47,34.156834,,-118.41378799999998,,R,Studio City,US,93.0,SE,Light Rain,False,False,False,False,False,False,False,False,False,False,True,False,Night,Night,Night,Night
103,48.36078737412979,16.093440057946687,0.0,5.63269,0.008520055832240789,296972,TX,A-296973,MapQuest,2,2016-08-26 09:20:22,2016-08-26 10:05:22,30.303837,,-97.645851,,R,Austin,US,87.0,Variable,Scattered Clouds,False,False,False,False,False,False,False,False,False,False,False,False,Day,Day,Day,Day
104,48.232039853666215,16.093440057946687,0.6904085784859127,13.035654,0.01906121090192709,1951125,CA,A-1951126,Bing,2,2017-06-09 12:20:42,2017-06-09 18:20:42,33.81863,33.822959999999995,-117.51502,-117.52038,R,Corona,US,53.0,West,Clear,False,False,False,False,True,False,False,False,False,False,False,False,Day,Day,Day,Day
105,48.40906769430362,16.093440057946687,0.888357891198657,12.523953338762482,0.0,1865220,CA,A-1865221,Bing,2,2016-09-08 09:04:10,2016-09-08 15:04:10,34.05447,34.05528,-118.20992,-118.21951,R,Los Angeles,US,71.0,Calm,Scattered Clouds,False,False,False,False,False,False,False,False,False,False,False,False,Day,Day,Day,Day
106,48.50562833465131,16.093440057946687,0.0,11.104446000000001,0.047961533832274354,1654569,OK,A-1654570,MapQuest,3,2017-09-28 16:52:55,2017-09-28 17:37:41,35.4147,,-97.31794,,R,Oklahoma City,US,67.0,ENE,Scattered Clouds,False,False,False,False,False,False,False,False,False,False,False,False,Day,Day,Day,Day
107,48.47344145453542,16.093440057946687,0.08368588830132277,13.035654,0.35405568127482706,2069186,OR,A-2069187,Bing,2,2018-10-29 03:45:02,2018-10-29 07:45:02,45.316294,45.316184,-122.909895,-122.910962,R,Newberg,US,97.0,South,Light Rain,False,False,False,False,False,False,False,False,False,False,False,False,Night,Night,Night,Night
108,48.2642267337821,16.093440057946687,0.0,16.0934,0.0,47064,CA,A-47065,MapQuest,2,2016-07-07 09:37:40,2016-07-07 10:41:11,33.86898,,-117.676056,,R,Anaheim,US,68.0,Calm,Scattered Clouds,False,False,False,False,False,False,False,False,False,False,False,False,Day,Day,Day,Day
109,48.3286004940139,4.828032017384006,2.156520967764856,16.737136,0.048280320173840055,2160009,NY,A-2160010,Bing,2,2018-02-11 11:12:19,2018-02-11 17:33:42,40.731844,40.73244,-73.32340400000002,-73.34898000000003,R,North Babylon,US,100.0,SE,Light Rain,False,False,False,False,True,False,False,False,False,False,False,False,Day,Day,Day,Day
110,47.68486289169603,16.093440057946687,0.0,5.63269,0.02807853653158485,1370957,CA,A-1370958,MapQuest,2,2018-01-09 09:56:08,2018-01-09 10:25:59,38.756721,,-122.607475,,R,Middletown,US,87.0,NE,Mostly Cloudy,False,False,False,False,False,False,False,False,False,False,False,False,Day,Day,Day,Day
111,48.13547921331853,16.093440057946687,0.0,18.50741,0.02891259273988776,856356,CA,A-856357,MapQuest,3,2018-10-24 15:14:23,2018-10-24 15:44:08,32.881096,,-117.201492,,R,San Diego,US,55.0,West,Clear,False,False,False,False,False,False,False,False,False,False,False,False,Day,Day,Day,Day
112,48.48953489459336,16.093440057946687,0.0,9.334171999999999,0.011704320243985523,622215,TX,A-622216,MapQuest,2,2019-02-26 10:59:17,2019-02-26 11:28:53,29.345915,,-98.455673,,R,San Antonio,US,81.0,ENE,Overcast,False,False,False,False,False,False,False,False,False,False,False,False,Day,Day,Day,Day
113,48.3286004940139,16.093440057946687,2.8775070823608675,7.402963999999999,0.0,2092147,OR,A-2092148,Bing,2,2018-08-18 17:21:49,2018-08-18 21:21:49,42.430375,42.43792,-123.252688,-123.28623,R,Grants Pass,US,30.0,Variable,Mostly Cloudy,False,False,False,False,False,False,False,False,False,False,False,False,Day,Day,Day,Day
114,48.5378152147672,16.093440057946687,0.0,22.208892000000002,0.023246080473161228,652598,OK,A-652599,MapQuest,2,2019-01-15 18:42:59,2019-01-15 19:12:50,35.565674,,-97.655907,,R,Oklahoma City,US,74.0,South,Overcast,False,False,False,False,False,False,False,False,False,False,False,False,Night,Night,Night,Day
115,47.76533009198576,4.828032017384006,0.0,9.334171999999999,0.016093440057946686,1221812,NY,A-1221813,MapQuest,2,2018-04-25 18:37:27,2018-04-25 19:36:42,42.64341,,-73.608452,,R,West Sand Lake,US,87.0,North,Light Drizzle,False,False,True,False,False,False,False,False,False,False,True,False,Day,Day,Day,Day
116,48.296413613898004,12.874752046357347,0.0,14.805927999999998,0.039110765585228524,1133286,TX,A-1133287,MapQuest,2,2018-05-11 08:43:50,2018-05-11 09:13:36,29.771519,,-95.372375,,L,Houston,US,78.0,SSE,Mostly Cloudy,False,False,False,False,False,False,False,False,False,False,False,False,Day,Day,Day,Day
117,48.63437585511488,16.093440057946687,0.043452288156456055,9.334171999999999,0.0017434374563350626,2017290,CA,A-2017291,Bing,2,2018-12-03 11:47:22,2018-12-03 12:17:16,34.659778,34.65958,-118.377687,-118.37727,R,Lake Hughes,US,40.0,NE,Clear,False,False,False,False,False,False,False,False,False,False,False,False,Day,Day,Day,Day
118,48.650469295172826,16.093440057946687,2.751978311305357,13.035654,0.009148008253596842,756867,NC,A-756868,MapQuest,2,2018-11-08 22:04:58,2018-11-08 22:34:32,35.79582199999999,,-78.640816,,R,Raleigh,US,57.0,ENE,Overcast,False,False,False,False,False,False,False,False,False,False,False,False,Night,Night,Night,Night
119,48.296413613898004,16.093440057946687,0.0,11.104446000000001,0.027588754717336354,139028,FL,A-139029,MapQuest,3,2016-08-26 06:51:17,2016-08-26 07:21:17,28.630995,,-81.387535,,R,Maitland,US,88.0,North,Partly Cloudy,False,False,False,False,False,False,False,False,False,False,False,False,Night,Day,Day,Day
120,48.28032017384005,16.093440057946687,0.0,7.402963999999999,0.03215928744726362,1670446,CA,A-1670447,MapQuest,3,2017-08-03 09:20:00,2017-08-03 09:49:41,34.134052000000004,,-117.957115,,R,Baldwin Park,US,55.0,SSW,Clear,False,False,False,False,True,False,False,False,False,False,False,False,Day,Day,Day,Day
121,48.376880814187736,16.093440057946687,0.0,17.917318666666667,0.032186880115893365,761729,AZ,A-761730,MapQuest,2,2018-11-09 09:34:24,2018-11-09 10:19:07,33.585583,,-112.063362,,R,Phoenix,US,11.0,Calm,Clear,False,False,False,False,False,False,False,False,False,False,False,False,Day,Day,Day,Day
122,48.15157265337648,16.093440057946687,1.6962485821075808,14.858505194979942,0.023195570544368854,2208979,CA,A-2208980,Bing,2,2017-10-04 16:00:25,2017-10-04 22:00:25,34.13064,34.12357,-117.92973,-117.91341,R,Azusa,US,19.0,Calm,Clear,False,False,False,False,False,False,False,False,False,False,False,False,Day,Day,Day,Day
123,48.2642267337821,16.093440057946687,0.0,24.1401,0.030654171415877597,562602,FL,A-562603,MapQuest,2,2019-03-30 14:23:02,2019-03-30 14:52:33,30.753431,,-85.380135,,R,Cottondale,US,31.0,SW,Clear,False,False,False,False,False,False,False,False,False,False,False,False,Day,Day,Day,Day
124,48.376880814187736,16.093440057946687,1.4628937012673537,20.438617999999998,0.0,2100705,TX,A-2100706,Bing,2,2018-07-10 16:49:38,2018-07-10 22:49:38,29.71223,29.69908,-95.55744,-95.55722,R,Houston,US,54.0,South,Partly Cloudy,False,False,False,False,False,False,False,False,False,False,False,False,Day,Day,Day,Day
125,48.296413613898004,16.093440057946687,0.0,5.63269,0.027588754717336354,76462,CA,A-76463,MapQuest,3,2016-09-12 11:16:50,2016-09-12 11:46:50,33.82098,,-117.518417,,R,Corona,US,63.0,Variable,Clear,False,False,False,False,False,False,False,False,False,False,False,False,Day,Day,Day,Day
126,48.2642267337821,16.093440057946687,0.8465149470479957,7.402963999999999,0.0,2057560,CA,A-2057561,Bing,2,2018-10-05 10:36:23,2018-10-05 11:51:14,34.12871,34.13064,-117.93862,-117.92973,R,Baldwin Park,US,57.0,SSE,Mostly Cloudy,False,False,False,False,False,False,False,False,False,False,False,False,Day,Day,Day,Day
127,47.68486289169603,16.093440057946687,0.016093440057946686,33.313338,0.012835332474757185,206461,RI,A-206462,MapQuest,3,2016-11-21 17:43:58,2016-11-21 18:13:39,41.666798,,-71.490311,,R,East Greenwich,US,50.0,West,Mostly Cloudy,False,False,False,False,False,False,False,False,False,False,False,False,Night,Night,Night,Day
128,48.48953489459336,16.093440057946687,0.0,7.402963999999999,0.005852160121992762,1393050,GA,A-1393051,MapQuest,3,2018-01-22 09:11:57,2018-01-22 09:41:20,33.752514,,-84.231735,,R,Decatur,US,71.0,ESE,Mostly Cloudy,False,False,False,False,False,False,False,False,False,False,False,False,Day,Day,Day,Day
129,47.89407761244934,16.093440057946687,0.0,33.313338,0.0,1942044,FL,A-1942045,Bing,2,2017-06-08 09:23:36,2017-06-08 15:23:36,28.10451,28.10451,-82.69417,-82.69417,R,Palm Harbor,US,74.0,SW,Mostly Cloudy,False,False,False,False,False,False,False,False,False,False,False,False,Day,Day,Day,Day
130,48.19985297355032,16.093440057946687,0.0,18.50741,0.0018659059547431118,1065104,TX,A-1065105,MapQuest,3,2018-06-08 17:15:58,2018-06-08 17:45:58,32.747513,,-97.316399,,R,Fort Worth,US,33.0,SSE,Partly Cloudy,False,False,False,False,False,False,False,False,False,False,False,False,Day,Day,Day,Day
131,48.90796433609998,9.656064034768011,0.0,7.402963999999999,0.02669677904735128,705841,TN,A-705842,MapQuest,2,2018-12-11 07:43:17,2018-12-11 08:13:08,35.027504,,-89.75970500000003,,R,Memphis,US,100.0,South,Clear,False,False,True,False,False,False,False,False,False,False,True,False,Day,Day,Day,Day
132,48.24813329372416,16.093440057946687,0.0,14.215836666666666,0.0,579004,PA,A-579005,MapQuest,2,2019-02-05 06:58:44,2019-02-05 07:28:26,40.82167800000001,,-76.004082,,R,Tamaqua,US,100.0,Calm,Mostly Cloudy,True,False,False,False,False,False,False,False,False,False,False,False,Night,Day,Day,Day
133,48.3286004940139,15.020544054083574,0.0,9.924263333333334,0.021457920077262247,370915,NJ,A-370916,MapQuest,2,2017-02-17 09:34:15,2017-02-17 10:49:17,40.660408,,-74.321564,,R,Cranford,US,,,,False,False,False,False,False,False,False,False,False,False,False,False,Day,Day,Day,Day
134,48.31250705395595,16.093440057946687,0.0,16.737136,0.024140159747712542,1166653,MI,A-1166654,MapQuest,3,2018-05-29 11:03:14,2018-05-29 11:32:29,42.490555,,-83.116127,,R,Royal Oak,US,45.0,East,Clear,False,False,False,False,False,False,False,False,False,False,False,False,Day,Day,Day,Day
135,48.39297425424568,16.093440057946687,0.7563916808051561,18.50741,0.0,711103,WA,A-711104,MapQuest,3,2018-12-13 03:53:27,2018-12-13 04:37:38,47.46312,,-122.217949,,R,Renton,US,86.0,SSE,Overcast,False,False,False,False,False,False,False,False,False,False,False,False,Night,Night,Night,Night
136,48.103292333202646,16.093440057946687,0.0,14.805927999999998,0.0024989813202501336,1170231,GA,A-1170232,MapQuest,3,2018-05-30 16:17:11,2018-05-30 16:46:27,33.702888,,-84.127319,,R,Lithonia,US,69.0,WSW,Mostly Cloudy,False,False,False,False,False,False,False,False,False,False,False,False,Day,Day,Day,Day
137,48.55390865482515,16.093440057946687,0.4522256656283019,13.035654,0.1551061704125479,2133354,VA,A-2133355,Bing,2,2018-04-09 14:37:43,2018-04-09 20:37:43,38.88366,38.88139,-77.22654,-77.2222,R,Vienna,US,68.0,SE,Overcast,True,False,False,False,True,False,False,False,False,False,False,False,Day,Day,Day,Day
138,48.103292333202646,16.093440057946687,0.0,16.737136,0.061308339570440705,1185726,GA,A-1185727,MapQuest,3,2018-04-07 12:00:18,2018-04-07 12:29:54,34.96767,,-85.191185,,R,Ringgold,US,83.0,NNW,Overcast,False,False,False,False,False,False,False,False,False,False,False,False,Day,Day,Day,Day
139,48.48953489459336,16.093440057946687,0.8062813469031289,22.208892000000002,0.0,1783985,OH,A-1783986,Bing,4,2016-11-11 10:07:41,2016-11-11 18:07:41,40.60826,40.60101,-84.3585,-84.35843,L,Saint Marys,US,66.0,North,Partly Cloudy,False,False,False,False,False,False,False,False,False,False,False,False,Day,Day,Day,Day
140,48.68265617528872,16.093440057946687,1.4001292850413616,14.805927999999998,0.0,199809,NY,A-199810,MapQuest,3,2017-01-11 07:01:43,2017-01-11 07:29:58,40.845657,,-73.92932900000002,,R,New York,US,82.0,WSW,Partly Cloudy,False,False,False,False,False,True,False,False,False,False,False,False,Night,Day,Day,Day
141,48.34469393407184,16.093440057946687,0.5021153298079366,15.831540348415249,0.0,1903948,CA,A-1903949,Bing,2,2017-03-03 09:48:15,2017-03-03 15:48:15,33.87369,33.87354000000001,-118.21079,-118.21622,R,Compton,US,15.0,Calm,Clear,False,False,False,False,False,False,False,False,False,False,False,False,Day,Day,Day,Day
142,49.342487217664534,16.093440057946687,0.49889664179634724,7.402963999999999,0.005674529584903407,1897151,VA,A-1897152,Bing,3,2017-03-23 12:27:06,2017-03-23 18:27:06,38.80487700000001,38.808757,-77.21277099999998,-77.21565799999998,R,Springfield,US,24.0,West,Clear,False,False,False,False,False,False,False,False,False,False,False,False,Day,Day,Day,Day
143,48.63437585511488,16.093440057946687,0.7740944667872355,24.1401,0.0,2180909,NY,A-2180910,Bing,2,2018-01-29 09:36:15,2018-01-29 15:36:15,40.746941,40.74062,-73.89533,-73.8992,R,Woodside,US,53.0,NE,Mostly Cloudy,False,False,False,False,False,False,False,False,False,False,False,False,Day,Day,Day,Day
144,48.40906769430362,16.093440057946687,0.0,9.334171999999999,0.012392809200766183,225427,OH,A-225428,MapQuest,2,2016-09-29 10:28:12,2016-09-29 10:58:01,39.77005,,-84.217957,,R,Dayton,US,88.0,East,Scattered Clouds,False,False,False,False,False,False,False,False,False,False,False,False,Day,Day,Day,Day
145,48.13547921331853,11.26540804056268,0.5230368018832673,11.104446000000001,0.034584307573336276,2157143,CA,A-2157144,Bing,2,2018-02-05 13:32:29,2018-02-05 19:32:29,34.06899,34.07285,-118.46328,-118.46654,R,Los Angeles,US,73.0,SW,Clear,False,False,False,False,True,False,False,False,False,False,False,False,Day,Day,Day,Day
146,48.55390865482515,16.093440057946687,0.0,7.402963999999999,0.016047677154867074,1332889,CA,A-1332890,MapQuest,3,2018-02-17 08:48:37,2018-02-17 09:18:08,37.757057,,-121.963577,,R,San Ramon,US,63.0,West,Clear,False,False,False,False,False,False,False,False,False,False,False,False,Day,Day,Day,Day
147,48.34469393407184,16.093440057946687,0.0,13.035654,0.024972579847967597,1576161,FL,A-1576162,MapQuest,2,2017-10-23 06:18:23,2017-10-23 06:47:30,25.854094,,-80.322693,,R,Hialeah,US,81.0,ESE,Scattered Clouds,False,False,False,False,False,False,False,False,False,False,False,False,Night,Night,Night,Day
148,48.31250705395595,16.093440057946687,0.0,18.50741,0.000548642487873026,1482569,CA,A-1482570,MapQuest,3,2017-11-04 12:01:44,2017-11-04 12:46:19,33.550713,,-117.672691,,R,Mission Viejo,US,63.0,SW,Partly Cloudy,False,False,False,False,False,False,False,False,False,False,False,False,Day,Day,Day,Day
149,48.232039853666215,16.093440057946687,0.695236610503297,25.910374,0.0,1807933,NY,A-1807934,Bing,2,2016-08-26 15:45:08,2016-08-26 21:45:08,40.78146,40.78159,-73.65288000000002,-73.64461999999997,R,Roslyn Heights,US,50.0,NNW,Mostly Cloudy,False,False,False,False,True,False,False,False,False,False,False,False,Day,Day,Day,Day
150,48.02282513291291,16.093440057946687,0.0,7.402963999999999,0.009142940351253747,1165749,GA,A-1165750,MapQuest,3,2018-05-28 08:16:36,2018-05-28 08:45:53,32.07291,,-81.150841,,R,Savannah,US,93.0,SSE,Partly Cloudy,False,False,False,False,False,False,False,False,False,False,False,False,Day,Day,Day,Day
151,48.730936495462565,16.093440057946687,0.0,16.737136,0.0,1495937,NJ,A-1495938,MapQuest,2,2017-11-13 13:40:04,2017-11-13 14:24:39,40.206913,,-74.04499799999998,,R,Neptune,US,86.0,North,Overcast,False,False,False,False,False,False,False,False,False,False,True,False,Day,Day,Day,Day
152,47.861890732333435,16.093440057946687,0.0,22.208892000000002,0.0,1255556,NJ,A-1255557,MapQuest,2,2018-03-13 16:18:12,2018-03-13 17:17:58,39.750996,,-75.024101,,L,Sicklerville,US,49.0,NW,Overcast,False,False,False,False,False,False,False,False,False,False,False,False,Day,Day,Day,Day
153,48.11938577326059,16.093440057946687,0.0,15.449664,0.03755136013520893,23824,CA,A-23825,MapQuest,3,2016-10-09 05:46:03,2016-10-09 06:45:14,37.939613,,-122.32483700000002,,R,Richmond,US,57.0,Calm,Clear,False,False,False,False,False,False,False,False,False,False,False,False,Night,Night,Night,Day
154,48.40906769430362,16.093440057946687,0.0,7.402963999999999,0.016793154796906674,1717514,WA,A-1717515,MapQuest,2,2017-08-25 17:35:15,2017-08-25 18:20:03,48.773182,,-122.457664,,R,Bellingham,US,40.0,Variable,Clear,False,False,False,False,False,False,False,False,False,False,True,False,Day,Day,Day,Day
155,48.376880814187736,16.093440057946687,1.1893052202822603,11.104446000000001,0.03423616399536155,1748708,TX,A-1748709,Bing,2,2016-11-30 08:56:37,2016-11-30 14:56:37,32.87535,32.886044,-96.7701,-96.769961,R,Dallas,US,44.0,NW,Partly Cloudy,False,False,False,False,True,False,False,False,False,False,False,False,Day,Day,Day,Day
156,48.69874961534667,16.093440057946687,0.016093440057946686,22.208892000000002,0.0,273436,TX,A-273437,MapQuest,3,2017-01-26 09:16:21,2017-01-26 09:46:18,29.682487,,-95.458565,,R,Houston,US,37.0,North,Clear,False,False,False,False,False,False,False,False,False,False,False,False,Day,Day,Day,Day
157,48.570002094883094,16.093440057946687,0.016093440057946686,25.910374,0.00773723102289356,34638,CA,A-34639,MapQuest,2,2016-04-14 11:39:26,2016-04-14 12:09:26,37.669594,,-122.393074,,R,South San Francisco,US,62.0,WNW,Partly Cloudy,False,False,False,False,True,False,False,False,False,False,False,False,Day,Day,Day,Day
158,47.797516972101654,16.093440057946687,0.0,22.208892000000002,0.0,800675,OK,A-800676,MapQuest,2,2018-11-28 16:09:45,2018-11-28 16:39:29,35.563274,,-97.67157,,L,Oklahoma City,US,31.0,SSW,Clear,False,False,False,False,False,False,False,False,False,False,False,False,Day,Day,Day,Day
159,47.652676011580134,16.093440057946687,0.0,16.737136,0.0035698559450217816,283407,TX,A-283408,MapQuest,2,2016-11-29 12:44:23,2016-11-29 13:29:05,29.456991,,-98.481812,,R,San Antonio,US,19.0,NE,Partly Cloudy,False,False,False,False,False,False,False,False,False,False,False,False,Day,Day,Day,Day
160,48.3286004940139,15.020544054083574,0.0,9.924263333333334,0.021457920077262247,1208192,OK,A-1208193,MapQuest,2,2018-04-18 19:34:30,2018-04-18 20:04:17,35.44986,,-97.724663,,L,Yukon,US,,,,False,False,False,False,False,False,False,False,False,False,True,False,Day,Day,Day,Day
161,48.521721774709256,8.046720028973343,0.0,5.63269,0.047509318199492306,807324,LA,A-807325,MapQuest,2,2018-10-02 08:57:49,2018-10-02 09:27:33,30.186592,,-92.065987,,L,Lafayette,US,97.0,NNE,Partly Cloudy,False,False,False,False,False,False,False,False,False,False,False,False,Day,Day,Day,Day
162,47.84579729227549,16.093440057946687,0.0,16.737136,0.0039146209092054155,1548050,TX,A-1548051,MapQuest,2,2017-10-09 15:14:41,2017-10-09 15:59:29,29.430756,,-98.554092,,R,San Antonio,US,62.0,SE,Clear,False,False,False,False,False,False,False,False,False,False,True,False,Day,Day,Day,Day
163,48.34469393407184,16.093440057946687,0.016093440057946686,18.50741,0.010241280305998468,355765,FL,A-355766,MapQuest,2,2017-03-02 17:09:07,2017-03-02 17:37:41,28.421005,,-81.442604,,R,Orlando,US,49.0,NNW,Mostly Cloudy,False,False,False,False,False,False,False,False,False,False,False,False,Day,Day,Day,Day
164,48.21594641360827,16.093440057946687,0.0,25.910374,0.0035763201133829667,1605593,CA,A-1605594,MapQuest-Bing,2,2017-09-06 19:24:30,2017-09-06 20:09:12,34.776928000000005,,-118.170464,,R,Lancaster,US,19.0,SW,Clear,False,False,False,False,False,False,False,False,False,False,False,False,Night,Day,Day,Day
165,48.3286004940139,11.26540804056268,0.6920179340033451,9.334171999999999,0.1126540804056268,758985,MI,A-758986,MapQuest,3,2018-11-09 10:47:08,2018-11-09 11:16:47,43.009644,,-83.676666,,L,Flint,US,92.0,East,Overcast,False,False,False,False,False,False,False,False,False,False,False,False,Day,Day,Day,Day
166,48.18375953349238,16.093440057946687,0.0,18.50741,0.005917914577285042,1658421,TX,A-1658422,MapQuest,2,2017-09-29 14:01:56,2017-09-29 14:46:01,31.720083,,-106.304878,,R,El Paso,US,56.0,East,Scattered Clouds,False,False,False,False,False,False,False,False,False,False,True,False,Day,Day,Day,Day
167,48.40906769430362,16.093440057946687,0.0,29.611855999999996,0.0019598567667001745,1572947,IL,A-1572948,MapQuest-Bing,2,2017-10-20 14:47:25,2017-10-20 15:32:16,42.273743,,-88.004036,,R,Mundelein,US,39.0,SSW,Clear,False,False,False,False,False,False,False,False,False,False,True,False,Day,Day,Day,Day
168,48.103292333202646,16.093440057946687,1.121712772038884,13.035654,0.009616828714202464,2067410,TX,A-2067411,Bing,2,2018-10-25 17:45:02,2018-10-25 18:14:15,32.94112,32.94849,-96.74414,-96.73592,R,Richardson,US,68.0,WNW,Scattered Clouds,False,False,False,False,False,False,False,False,False,False,False,False,Day,Day,Day,Day
169,47.68486289169603,16.093440057946687,9.425927841939373,38.946028,0.0,1891945,MI,A-1891946,Bing,4,2017-03-08 10:45:06,2017-03-08 16:45:06,44.160962,44.07621,-84.796712,-84.794289,R,Harrison,US,42.0,West,Mostly Cloudy,False,False,False,False,False,False,False,False,False,False,False,False,Day,Day,Day,Day
170,47.958451372681125,16.093440057946687,0.016093440057946686,18.50741,0.015419589892525279,41326,CA,A-41327,MapQuest,2,2016-06-06 11:58:35,2016-06-06 12:28:35,38.431026,,-122.715302,,R,Santa Rosa,US,70.0,South,Partly Cloudy,False,False,False,False,False,False,False,False,False,False,False,False,Day,Day,Day,Day
171,48.42516113436157,8.046720028973343,0.0,24.1401,0.0,652461,IL,A-652462,MapQuest,3,2019-01-15 20:19:54,2019-01-15 21:19:12,41.761967,,-87.866928,,R,La Grange,US,88.0,WSW,Light Freezing Rain,False,False,False,False,False,False,False,False,False,False,False,False,Night,Night,Night,Night
172,47.877984172391386,8.046720028973343,0.03379622412168804,29.611855999999996,0.1126540804056268,2026915,OR,A-2026916,Bing,2,2018-12-14 15:36:32,2018-12-14 19:36:32,44.853453,44.853543,-122.66084,-122.661258,L,Stayton,US,77.0,South,Rain,False,False,False,False,False,False,False,False,False,False,False,False,Day,Day,Day,Day
173,48.2642267337821,16.093440057946687,0.0,13.035654,0.029967095193193453,932039,TX,A-932040,MapQuest,2,2018-07-31 10:41:40,2018-07-31 11:41:18,30.140699,,-97.82325,,R,Manchaca,US,55.0,NNW,Overcast,False,False,False,False,False,False,False,False,False,False,False,False,Day,Day,Day,Day
174,49.24592657731686,16.093440057946687,0.8947952672218358,7.402963999999999,0.0,1890834,IL,A-1890835,Bing,2,2017-03-03 17:11:33,2017-03-03 23:11:33,41.766202,41.75816,-87.62595999999998,-87.62581999999998,R,Chicago,US,37.0,NNW,Mostly Cloudy,False,False,False,False,False,False,False,False,False,False,False,False,Day,Day,Day,Day
175,48.19985297355032,16.093440057946687,0.016093439698226113,7.402963999999999,0.0071526400760070444,437822,CA,A-437823,MapQuest,3,2017-05-19 11:48:33,2017-05-19 12:18:10,38.671066,,-121.59748799999998,,R,Sacramento,US,30.0,WSW,Clear,False,False,False,False,False,False,False,False,False,False,False,False,Day,Day,Day,Day
176,48.34469393407184,16.093440057946687,0.9977932835926945,11.104446000000001,0.03469016471957881,1807673,NJ,A-1807674,Bing,4,2016-08-25 23:09:20,2016-10-03 23:59:00,39.59793300000001,39.59624,-74.37881800000002,-74.39026,L,Tuckerton,US,76.0,SSW,Clear,False,False,False,False,False,False,False,False,False,False,False,False,Night,Night,Night,Night
177,48.090386891074026,16.093440821165977,0.5165994258600886,12.231086138233787,0.04184042812861042,2179483,NY,A-2179484,Bing,3,2018-01-25 20:07:44,2018-01-26 02:07:44,40.72107000000001,40.71648,-73.9747,-73.97568000000003,R,New York,US,,,,False,False,False,False,True,False,False,False,False,False,False,False,Night,Night,Night,Night
178,48.24813329372416,11.26540804056268,0.0,5.63269,0.07306736748095367,85730,CA,A-85731,MapQuest,3,2016-08-01 21:34:38,2016-08-01 22:19:38,32.881088,,-117.201492,,R,San Diego,US,81.0,West,Scattered Clouds,False,False,False,False,False,False,False,False,False,False,False,False,Night,Night,Night,Night
179,47.97454481273907,16.093440057946687,0.0,24.1401,0.0,39065,CA,A-39066,MapQuest,3,2016-05-19 11:24:28,2016-05-19 11:54:28,37.847965,,-122.027657,,R,Alamo,US,35.0,South,Clear,False,False,False,False,True,False,False,False,False,False,False,False,Day,Day,Day,Day
180,48.521721774709256,1.6093440057946684,0.0,7.402963999999999,0.048528242355582035,1683402,SC,A-1683403,MapQuest,2,2017-08-10 17:09:03,2017-08-10 17:38:51,34.30687,,-79.895515,,R,Darlington,US,62.0,East,Haze,False,False,False,False,False,False,False,False,False,False,True,False,Day,Day,Day,Day
181,48.15157265337648,9.656064034768011,0.1770278396782445,7.402963999999999,0.0,1051181,FL,A-1051182,MapQuest,2,2018-06-01 20:17:21,2018-06-01 21:02:00,30.24992,,-81.551765,,R,Jacksonville,US,77.0,NE,Light Rain,False,False,False,False,True,False,False,False,False,False,False,False,Day,Day,Day,Day
182,48.42516113436157,16.093440057946687,0.3958986254254884,7.402963999999999,0.07168279339577788,1849084,CA,A-1849085,Bing,2,2016-11-04 10:39:01,2016-11-04 16:39:01,33.82594,33.82593,-118.23702,-118.24131,R,Long Beach,US,42.0,South,Clear,False,False,False,False,False,False,False,False,False,False,False,False,Day,Day,Day,Day
183,48.296413613898004,8.046720028973343,0.016093440057946686,22.208892000000002,0.18075680634563462,342819,CA,A-342820,MapQuest,2,2017-04-01 17:08:42,2017-04-01 17:37:59,37.358788,,-122.397621,,L,Half Moon Bay,US,72.0,NNW,Haze,False,False,False,False,False,False,False,False,False,False,False,False,Day,Day,Day,Day
184,48.02282513291291,16.093440057946687,1.1249314600504734,11.104446000000001,0.0,2220780,NY,A-2220781,Bing,2,2017-09-06 08:04:36,2017-09-06 14:04:36,40.7324,40.724921,-73.92497,-73.933966,R,Maspeth,US,87.0,NW,Light Rain,False,False,False,False,True,False,False,False,False,False,False,False,Day,Day,Day,Day
185,48.40906769430362,16.093440057946687,0.0,5.63269,0.0003965529072015324,1095309,SC,A-1095310,MapQuest,2,2018-06-25 08:45:40,2018-06-25 09:45:21,34.861759,,-82.356827,,L,Greenville,US,72.0,WSW,Clear,False,False,False,False,False,False,False,False,False,False,True,False,Day,Day,Day,Day
186,48.232039853666215,16.093440057946687,0.0321868793965166,14.215837066176723,0.0107289603401489,484080,TX,A-484081,MapQuest,2,2017-06-01 13:48:31,2017-06-01 14:48:11,32.691231,,-96.857071,,R,Dallas,US,53.0,Calm,Partly Cloudy,False,False,False,False,False,False,False,False,False,False,True,False,Day,Day,Day,Day
187,47.958451372681125,16.093440057946687,0.0,13.035654,0.0401727321536934,2228814,CT,A-2228815,Bing,3,2017-09-27 18:09:57,2017-09-28 00:09:57,41.865192,41.865192,-72.662454,-72.662454,R,Windsor,US,63.0,South,Scattered Clouds,False,False,False,False,False,False,False,False,False,False,False,False,Day,Day,Day,Day
188,48.28032017384005,11.26540804056268,0.016093440057946686,11.104446000000001,0.09167542089903409,271540,TX,A-271541,MapQuest,2,2017-01-18 11:37:19,2017-01-18 12:07:08,29.819336,,-95.473679,,L,Houston,US,83.0,SSW,Mostly Cloudy,False,False,False,False,False,False,False,False,False,False,True,False,Day,Day,Day,Day
189,47.877984172391386,16.093440057946687,0.0,18.50741,0.0074162838152496335,2123887,CA,A-2123888,Bing,2,2018-05-11 19:45:54,2018-05-12 01:45:54,37.37677,37.37677,-121.9414,-121.9414,R,San Jose,US,41.0,NW,Clear,False,False,False,False,True,False,False,False,False,False,False,False,Day,Day,Day,Day
190,48.16766609343443,16.093440057946687,0.7628290587466728,20.927766779028563,0.0,1753048,TX,A-1753049,Bing,3,2016-08-10 06:20:57,2016-08-10 12:20:57,29.74932,29.74263,-95.45621,-95.45793,R,Houston,US,79.0,Calm,Clear,False,False,False,False,True,False,False,False,False,False,False,False,Night,Night,Day,Day
191,48.232039853666215,16.093440057946687,0.0,16.737136,0.0,1371945,IN,A-1371946,MapQuest,2,2018-01-10 19:21:39,2018-01-10 20:06:24,39.653336,,-86.158417,,R,Indianapolis,US,90.0,South,Overcast,False,False,False,False,False,False,False,False,False,False,False,False,Night,Night,Night,Night
192,48.39297425424568,16.093440057946687,0.016093440057946686,5.63269,0.0011468009954860368,14924,CA,A-14925,MapQuest,2,2016-11-03 21:58:49,2016-11-03 22:28:13,38.42775,,-122.715164,,R,Santa Rosa,US,96.0,North,Clear,False,False,False,False,False,False,False,False,False,False,False,False,Night,Night,Night,Night
193,47.97454481273907,16.093440057946687,0.0,11.104446000000001,0.0,465942,FL,A-465943,MapQuest,2,2017-06-08 05:33:29,2017-06-08 06:03:04,25.93162,,-80.204338,,R,Miami,US,94.0,South,Scattered Clouds,False,False,False,False,False,False,False,False,False,False,False,False,Night,Night,Day,Day
194,48.19985297355032,16.093440057946687,2.042257543353434,7.402963999999999,0.0,1921185,CA,A-1921186,Bing,2,2017-04-06 18:55:55,2017-04-07 00:55:55,33.89275,33.87438,-117.88081,-117.88052,R,Fullerton,US,70.0,Variable,Clear,False,False,False,False,False,False,False,False,False,False,False,False,Day,Day,Day,Day
195,48.19985297355032,16.093440057946687,0.8529523230711743,9.334171999999999,0.0,1736062,CA,A-1736063,Bing,2,2016-05-19 09:38:08,2016-05-19 15:38:08,32.60988,32.60221,-117.03667,-117.03645,R,Chula Vista,US,73.0,Variable,Overcast,False,False,False,False,False,False,False,False,False,False,False,False,Day,Day,Day,Day
196,47.98667822473747,11.55292559798343,0.03379622412168804,23.581198964584217,0.08110580216126415,1984571,OR,A-1984572,Bing,2,2019-02-06 18:07:04,2019-02-06 22:07:04,45.3438,45.3437,-121.94277,-121.942369,R,Rhododendron,US,,,,False,False,False,False,False,False,False,False,False,False,False,False,Night,Night,Day,Day
197,48.82749713581024,16.093440057946687,0.0,5.63269,0.0031148590880876012,1575149,CA,A-1575150,MapQuest,3,2017-10-22 11:12:44,2017-10-22 12:11:58,36.85585,,-121.631729,,R,Aromas,US,59.0,Variable,Clear,False,False,False,False,False,False,False,False,False,False,False,False,Day,Day,Day,Day
198,48.232039853666215,16.093440057946687,0.0,25.910374,0.009903655348017664,467082,FL,A-467083,MapQuest,3,2017-06-20 17:51:46,2017-06-20 18:51:15,25.898338,,-80.20976999999998,,R,Miami,US,67.0,SE,Scattered Clouds,False,False,False,False,False,False,False,False,False,False,False,False,Day,Day,Day,Day
199,48.3286004940139,15.020544054083574,0.0,9.924263333333334,0.021457920077262247,1195374,VA,A-1195375,MapQuest,3,2018-04-12 07:45:33,2018-04-12 08:15:18,36.957619,,-76.264381,,R,Norfolk,US,,,,False,False,False,False,False,False,False,False,False,False,False,False,Day,Day,Day,Day
200,47.76533009198576,16.093440057946687,0.8239841309668703,9.655587524064071,0.015123851310177969,1931884,SC,A-1931885,Bing,2,2017-05-25 10:58:57,2017-05-25 16:58:57,33.70194,33.70755,-80.24746999999998,-80.24166,R,Manning,US,73.0,North,Mostly Cloudy,False,False,False,False,False,False,False,False,False,False,False,False,Day,Day,Day,Day
201,47.99063825279701,16.093440057946687,0.016093440057946686,24.1401,0.0,152685,GA,A-152686,MapQuest,3,2016-11-30 10:03:36,2016-11-30 10:33:07,33.699013,,-84.26616700000002,,R,Decatur,US,87.0,South,Overcast,False,False,False,False,False,False,False,False,False,False,False,False,Day,Day,Day,Day
202,48.47344145453542,16.093440057946687,1.2665537325604042,7.402963999999999,0.0,2088284,FL,A-2088285,Bing,4,2018-08-09 09:28:32,2018-08-09 15:28:32,28.45024,28.460701,-81.42752,-81.422379,R,Orlando,US,79.0,WSW,Partly Cloudy,False,False,False,False,False,False,False,False,False,False,True,False,Day,Day,Day,Day
203,48.34469393407184,16.093440057946687,0.016093440057946686,10.514354666666666,0.0005465721488187959,149414,GA,A-149415,MapQuest,2,2017-01-19 08:44:27,2017-01-19 09:13:59,33.757175,,-84.387939,,L,Atlanta,US,86.0,Calm,Overcast,False,False,True,False,False,False,False,False,False,False,False,False,Day,Day,Day,Day
204,48.31250705395595,16.093440057946687,0.0,24.1401,0.025189732372337837,991750,RI,A-991751,MapQuest,3,2018-08-30 16:45:29,2018-08-30 17:15:02,41.788891,,-71.506592,,L,Cranston,US,57.0,North,Mostly Cloudy,False,False,False,False,False,False,False,False,False,False,False,False,Day,Day,Day,Day
205,48.02282513291291,16.093440057946687,0.0,25.910374,0.001996085337861305,1024891,TX,A-1024892,MapQuest,3,2018-07-18 20:31:25,2018-07-18 21:01:09,29.520662,,-98.499367,,R,San Antonio,US,42.0,SE,Partly Cloudy,False,False,False,False,False,False,False,False,False,False,False,False,Day,Day,Day,Day
206,48.63437585511488,16.093440057946687,0.0,9.334171999999999,0.0015408610877982163,255637,PA,A-255638,MapQuest,2,2016-09-04 18:23:26,2016-09-04 18:53:26,40.178585,,-75.454018,,R,Collegeville,US,35.0,East,Clear,False,False,False,False,False,False,False,False,False,False,False,False,Day,Day,Day,Day
207,48.0550120130288,12.874752046357347,0.20599603274171757,44.417784000000005,0.04293239622384659,1841398,CA,A-1841399,Bing,2,2016-12-16 11:54:23,2016-12-16 17:54:23,33.93128,33.93123,-118.38378,-118.38602,R,El Segundo,US,72.0,West,Mostly Cloudy,False,False,False,False,False,False,False,False,False,False,False,False,Day,Day,Day,Day
208,47.652676011580134,11.26540804056268,0.0,25.910374,0.03218688011589337,1726125,LA,A-1726126,MapQuest,2,2017-08-30 16:08:50,2017-08-30 16:38:33,30.196009000000004,,-92.1082,,R,Lafayette,US,88.0,SW,Light Rain,False,False,False,False,False,False,False,False,False,False,False,False,Day,Day,Day,Day
209,48.15157265337648,16.093440057946687,0.0,5.63269,0.0,48829,CA,A-48830,MapQuest,3,2016-07-14 18:07:24,2016-07-14 18:52:24,34.064625,,-118.158447,,R,Alhambra,US,62.0,Variable,Clear,False,False,False,False,True,False,False,False,False,False,False,False,Day,Day,Day,Day
210,48.68265617528872,16.093440057946687,0.0,18.50741,0.005706893429627918,1336757,FL,A-1336758,MapQuest,3,2018-02-20 14:25:41,2018-02-20 15:11:00,27.852526,,-82.664055,,R,Saint Petersburg,US,48.0,ESE,Scattered Clouds,False,False,False,False,False,False,False,False,False,False,False,False,Day,Day,Day,Day
211,48.21594641360827,16.093440057946687,0.0,20.438617999999998,0.0,98413,CA,A-98414,MapQuest,3,2016-03-29 13:29:42,2016-03-29 14:14:42,32.760757,,-117.194733,,R,San Diego,US,46.0,West,Mostly Cloudy,False,False,False,False,False,False,False,False,False,False,False,False,Day,Day,Day,Day
212,47.958451372681125,16.093440057946687,0.0,7.402963999999999,0.015843673023127662,1620605,OR,A-1620606,MapQuest,2,2017-09-13 13:33:18,2017-09-13 14:17:54,42.323647,,-122.895927,,R,Medford,US,29.0,WNW,Smoke,False,False,False,False,False,False,False,False,False,False,False,False,Day,Day,Day,Day
213,48.795310255694346,16.093440057946687,0.0,7.402963999999999,0.0004782860323125967,696783,NC,A-696784,MapQuest,2,2018-12-06 16:45:04,2018-12-06 17:14:55,35.786869,,-78.642761,,R,Raleigh,US,51.0,SW,Mostly Cloudy,False,False,False,False,False,False,False,False,False,False,False,False,Day,Day,Day,Day
214,48.03891857297086,11.26540804056268,1.7155607101771164,13.035654,0.023331014372458787,2070142,CA,A-2070143,Bing,2,2018-10-30 14:07:29,2018-10-30 14:37:25,34.03038,34.01495,-117.55047,-117.5505,R,Mira Loma,US,40.0,WSW,Clear,False,False,False,False,False,False,False,False,False,False,False,False,Day,Day,Day,Day
215,48.42516113436157,16.093440057946687,0.0,7.402963999999999,2.752204072909232e-05,1668198,NY,A-1668199,MapQuest,3,2017-08-03 22:05:48,2017-08-03 22:32:49,41.05666,,-73.835388,,R,Irvington,US,78.0,SE,Partly Cloudy,False,False,False,False,False,False,False,False,False,False,False,False,Night,Night,Night,Night
216,48.48953489459336,16.093440057946687,1.1909145796363685,15.235366889563533,0.05295367031042623,642381,CA,A-642382,MapQuest,3,2019-01-09 04:41:45,2019-01-09 05:10:36,33.931911,,-118.101303,,R,Norwalk,US,83.0,Calm,Clear,False,False,False,False,False,False,False,False,False,False,False,False,Night,Night,Night,Night
217,48.39297425424568,3.218688011589337,0.0,11.104446000000001,0.0,1454052,TN,A-1454053,MapQuest,2,2017-12-19 16:13:12,2017-12-19 17:13:12,36.162846,,-86.819542,,R,Nashville,US,93.0,South,Overcast,False,False,False,False,False,False,False,False,False,False,False,False,Day,Day,Day,Day
218,48.570002094883094,14.484096052152017,0.0,9.394134162188138,0.0,1190155,NC,A-1190156,MapQuest,2,2018-04-10 06:52:23,2018-04-10 07:21:53,35.785553,,-78.589699,,R,Raleigh,US,89.0,Calm,Mostly Cloudy,False,False,False,False,False,False,False,False,False,False,False,False,Day,Day,Day,Day
219,48.40906769430362,16.093440057946687,0.0,15.449664,0.08000385297498798,251695,PA,A-251696,MapQuest,2,2016-08-04 19:24:36,2016-08-04 19:54:36,40.114483,,-75.34187299999998,,L,Norristown,US,54.0,Calm,Clear,False,False,False,False,False,False,False,False,False,False,False,False,Day,Day,Day,Day
220,48.48953489459336,16.093440057946687,2.098584583556248,9.843422044780237,0.009900041724184936,1877297,GA,A-1877298,Bing,4,2017-02-11 22:58:51,2017-02-12 04:58:51,33.001946999999994,33.019168,-83.219436,-83.228639,R,Milledgeville,US,77.0,Calm,Mostly Cloudy,False,False,False,False,False,False,False,False,False,False,False,False,Night,Night,Night,Night
221,48.3286004940139,15.020544054083574,0.0,9.924263333333334,0.021457920077262247,1627168,CA,A-1627169,MapQuest,2,2017-09-15 17:57:44,2017-09-15 18:42:27,34.146259,,-118.076454,,R,Pasadena,US,,,,False,False,False,False,False,False,False,False,False,False,True,False,Day,Day,Day,Day
222,48.3286004940139,16.093440057946687,0.0,9.924263333333334,0.021457920077262247,1075443,KY,A-1075444,MapQuest,3,2018-06-14 22:42:42,2018-06-14 23:12:20,39.058949,,-84.53828399999998,,R,Covington,US,87.0,Calm,Clear,False,False,False,False,False,False,False,False,False,False,False,False,Night,Night,Night,Day
223,49.06889873667944,16.093440057946687,0.37658649735595245,14.382265098468435,0.00274793021840172,1980098,VA,A-1980099,Bing,4,2019-01-31 07:24:46,2019-01-31 07:54:10,38.850473,38.85098,-77.342378,-77.33808,L,Fairfax,US,69.0,Calm,Clear,False,False,False,False,False,False,False,False,False,False,True,False,Day,Day,Day,Day
224,48.18375953349238,16.093440057946687,0.0,7.402963999999999,0.00024384111895959867,679437,TX,A-679438,MapQuest,2,2019-01-28 09:17:35,2019-01-28 09:47:07,29.659433,,-95.476532,,R,Houston,US,82.0,Variable,Partly Cloudy,False,False,False,False,False,False,False,False,False,False,True,False,Day,Day,Day,Day
225,48.40906769430362,16.093440057946687,0.9205447713145505,5.63269,0.0,2039962,NC,A-2039963,Bing,3,2018-11-07 20:12:09,2018-11-07 20:41:24,35.91019,35.91185,-78.73363,-78.72361,R,Raleigh,US,78.0,NE,Mostly Cloudy,False,False,False,False,False,False,False,False,False,False,False,False,Night,Night,Night,Night
226,48.296413613898004,3.218688011589337,0.0,7.402963999999999,0.048280320173840055,629420,NC,A-629421,MapQuest,3,2019-01-03 05:06:11,2019-01-03 05:35:56,35.722713,,-78.584595,,R,Garner,US,100.0,WSW,Light Rain,False,False,False,False,False,False,False,False,False,False,False,False,Night,Night,Night,Night
227,48.2642267337821,16.093440057946687,0.016093440057946686,22.208892000000002,0.028968193081221633,397860,CA,A-397861,MapQuest,3,2017-04-11 20:10:39,2017-04-11 20:40:13,37.808498,,-122.366852,,R,San Francisco,US,72.0,South,Mostly Cloudy,False,False,False,False,False,False,False,False,False,False,False,False,Night,Night,Day,Day
228,48.89187089604203,14.484096052152017,0.0,7.389876623387574,0.0,1344926,FL,A-1344927,MapQuest,2,2018-02-23 06:15:51,2018-02-23 06:45:32,29.860771000000003,,-81.32296,,R,Saint Augustine,US,96.0,Calm,Clear,False,False,False,False,False,False,False,False,False,False,True,False,Night,Night,Day,Day
229,48.55390865482515,16.093440057946687,0.016093440057946686,9.334171999999999,0.015288767342713661,184590,MI,A-184591,MapQuest,2,2016-11-03 15:20:17,2016-11-03 16:05:27,42.505627,,-83.285439,,L,Southfield,US,71.0,WNW,Scattered Clouds,False,False,False,False,False,False,False,False,False,False,False,False,Day,Day,Day,Day
230,48.15157265337648,12.874752046357347,0.39750796943128314,13.035654,0.05727901064103677,1835032,NY,A-1835033,Bing,2,2016-05-31 14:36:26,2016-05-31 20:36:26,40.764315,40.76503,-73.722931,-73.7183,R,Little Neck,US,60.0,South,Mostly Cloudy,False,False,False,False,False,False,False,False,False,False,False,False,Day,Day,Day,Day
231,48.11938577326059,16.093440057946687,0.0,13.035654,0.0,2241156,MA,A-2241157,Bing,2,2017-08-24 15:26:11,2017-08-24 21:26:11,41.79909,41.79909,-71.33369,-71.33369,R,Seekonk,US,36.0,West,Mostly Cloudy,False,False,False,False,False,False,False,False,False,False,True,False,Day,Day,Day,Day
232,48.28032017384005,16.093440057946687,0.0,16.683491333333333,0.02682240009657781,934563,OK,A-934564,MapQuest,3,2018-08-01 15:47:32,2018-08-01 16:17:03,35.39147600000001,,-97.530113,,R,Oklahoma City,US,32.0,Calm,Partly Cloudy,False,False,False,False,False,False,False,False,False,False,False,False,Day,Day,Day,Day
233,48.92405777615792,16.093440057946687,0.0,13.625745333333333,0.005149901009584603,1525107,NC,A-1525108,MapQuest,2,2017-11-28 09:13:19,2017-11-28 09:57:59,35.813694,,-78.87269599999998,,R,Cary,US,76.0,Calm,Partly Cloudy,False,False,False,False,False,False,False,False,False,False,True,False,Day,Day,Day,Day
234,48.82749713581024,40.23360014486671,0.0,9.334171999999999,0.058585458832345276,1614806,CO,A-1614807,MapQuest,3,2017-09-11 08:43:40,2017-09-11 09:14:00,39.780113,,-104.949715,,R,Denver,US,38.0,WSW,Mostly Cloudy,False,False,False,False,False,False,False,False,False,False,True,False,Day,Day,Day,Day
235,48.81140369575229,4.023360014486672,0.6598310366207999,9.334171999999999,0.03319796442063302,703845,OR,A-703846,MapQuest,3,2018-12-10 08:38:39,2018-12-10 13:40:45,45.5877,,-122.680862,,R,Portland,US,93.0,ESE,Overcast,False,False,False,False,False,False,False,False,False,False,False,False,Day,Day,Day,Day
236,48.441254574419524,16.093440057946687,0.0,16.737136,0.008046720028973341,1112256,VA,A-1112257,MapQuest,3,2018-05-02 18:25:35,2018-05-02 18:55:13,37.657974,,-77.45037099999998,,R,Richmond,US,21.0,SW,Clear,False,False,False,False,False,False,False,False,False,False,False,False,Day,Day,Day,Day
237,48.24813329372416,16.093440057946687,0.0,13.035654,0.019312127743896842,1689446,FL,A-1689447,MapQuest,2,2017-08-14 19:03:40,2017-08-14 19:33:19,25.925276,,-80.276627,,R,Opa Locka,US,61.0,WSW,Clear,False,False,False,False,False,False,False,False,False,False,True,False,Day,Day,Day,Day
238,48.55390865482515,0.8046720028973342,0.0,5.63269,0.04919456522720418,1345342,TX,A-1345343,MapQuest,2,2018-02-23 11:54:36,2018-02-23 12:38:49,30.379490000000004,,-97.738052,,R,Austin,US,100.0,Variable,Fog,False,False,False,False,False,False,False,False,False,False,False,False,Day,Day,Day,Day
239,48.16766609343443,16.093440057946687,0.0,14.805927999999998,0.0017685099394879073,1017708,TX,A-1017709,MapQuest,2,2018-07-13 19:08:43,2018-07-13 19:38:08,32.889301,,-96.980881,,R,Irving,US,33.0,SE,Partly Cloudy,False,False,False,False,False,False,False,False,False,False,True,False,Day,Day,Day,Day
240,48.16766609343443,16.093440057946687,0.0,27.841582000000002,0.0,1110066,MO,A-1110067,MapQuest,3,2018-05-01 15:28:21,2018-05-01 15:57:37,38.710907,,-90.285759,,R,Saint Louis,US,31.0,South,Mostly Cloudy,False,False,False,False,False,False,False,False,False,False,False,False,Day,Day,Day,Day
241,48.16766609343443,16.093440057946687,0.0,24.1401,0.0,492347,CA,A-492348,MapQuest,2,2017-07-18 14:42:36,2017-07-18 15:11:45,38.55931500000001,,-121.477356,,R,Sacramento,US,19.0,SW,Clear,False,False,False,False,False,False,False,False,False,False,False,False,Day,Day,Day,Day
242,48.36078737412979,9.656064034768011,0.0,7.402963999999999,0.03577606359548839,966278,NY,A-966279,MapQuest,2,2018-08-17 06:47:05,2018-08-17 07:46:57,43.096516,,-75.218826,,R,Utica,US,93.0,SE,Mostly Cloudy,False,False,False,False,False,False,False,False,False,False,False,False,Day,Day,Day,Day
243,47.523928491116564,4.023360014486672,0.0,36.17854313541362,0.16093440057946687,575188,CA,A-575189,MapQuest,2,2019-02-02 07:19:22,2019-02-02 08:04:06,36.86055800000001,,-121.62262,,L,Aromas,US,96.0,Calm,Heavy Rain,False,False,False,False,True,False,False,False,False,False,False,False,Day,Day,Day,Day
244,48.61828241505694,16.093440057946687,0.016093440057946686,20.438617999999998,0.0,362828,GA,A-362829,MapQuest,3,2017-03-18 10:45:09,2017-03-18 11:28:59,33.617668,,-84.39836899999997,,R,Forest Park,US,93.0,WSW,Overcast,False,False,False,False,False,False,False,False,False,False,False,False,Day,Day,Day,Day
245,48.16766609343443,4.828032017384006,0.016093440057946686,25.910374,0.2253081608112536,64817,CA,A-64818,MapQuest,3,2017-01-23 07:29:05,2017-01-23 08:28:41,33.048889,,-117.073143,,R,San Diego,US,96.0,West,Rain,False,False,False,False,False,False,False,False,False,False,False,False,Day,Day,Day,Day
246,48.232039853666215,16.093440057946687,0.0,18.50741,0.0,819545,MO,A-819546,MapQuest,3,2018-10-08 16:40:47,2018-10-08 17:10:21,38.677029,,-90.449371,,R,Saint Louis,US,46.0,SSE,Mostly Cloudy,False,False,False,False,False,False,False,False,False,False,False,False,Day,Day,Day,Day
247,48.31250705395595,16.093440057946687,0.016093440057946686,8.636791333333333,0.0,83157,CA,A-83158,MapQuest,3,2016-10-11 21:13:17,2016-10-11 21:43:17,34.014744,,-118.281197,,R,Los Angeles,US,84.0,Calm,Clear,False,False,False,False,True,False,False,False,False,False,False,False,Night,Night,Night,Night
248,48.69874961534667,16.093440057946687,0.917326083302961,5.63269,0.0,2053776,SC,A-2053777,Bing,4,2018-10-01 00:10:46,2018-10-01 00:40:21,33.555321,33.5618,-80.820819,-80.82695,R,Orangeburg,US,90.0,NE,Clear,False,False,False,False,False,False,False,False,False,False,False,False,Night,Night,Night,Night
249,48.68265617528872,16.093440057946687,0.016093440057946686,9.334171999999999,0.0,11109,CA,A-11110,MapQuest,3,2017-01-13 23:40:29,2017-01-14 00:09:51,37.646858,,-122.09256,,R,Hayward,US,74.0,ENE,Clear,False,False,False,False,False,False,False,False,False,False,False,False,Night,Night,Night,Night
250,48.3286004940139,16.093440057946687,0.0,13.035654,0.032063084546459494,479326,OH,A-479327,MapQuest,2,2017-06-12 15:58:09,2017-06-12 16:27:46,39.852417,,-82.93860600000002,,R,Groveport,US,34.0,WSW,Clear,False,False,False,False,False,False,False,False,False,False,True,False,Day,Day,Day,Day
251,48.39297425424568,16.093440057946687,0.0,16.737136,0.048280320173840055,1643554,MI,A-1643555,MapQuest,3,2017-09-24 18:18:22,2017-09-24 18:47:48,42.735867,,-83.379684,,R,Clarkston,US,42.0,SE,Partly Cloudy,False,False,False,False,False,False,False,False,False,False,False,False,Day,Day,Day,Day
252,48.03891857297086,16.093440057946687,0.016093440057946686,7.402963999999999,0.006565482855873459,67657,CA,A-67658,MapQuest,3,2016-10-27 19:56:06,2016-10-27 20:40:38,34.231709,,-118.404099,,R,Sun Valley,US,37.0,WNW,Clear,False,False,False,False,False,False,False,False,False,False,False,False,Night,Night,Night,Night
253,48.31250705395595,16.093440057946687,0.0,20.438617999999998,0.0,773895,GA,A-773896,MapQuest,2,2018-11-15 07:53:38,2018-11-15 08:53:11,33.294956,,-82.147667,,L,Hephzibah,US,89.0,NNE,Overcast,False,False,False,False,False,False,False,False,False,False,False,False,Day,Day,Day,Day
254,48.441254574419524,1.931212806953602,0.0,9.38442623204676,0.06712037942409273,248251,PA,A-248252,MapQuest,2,2016-10-02 08:31:41,2016-10-02 09:01:11,39.764496,,-76.703835,,R,New Freedom,US,100.0,Calm,Overcast,False,False,False,False,False,False,False,False,False,False,False,False,Day,Day,Day,Day
255,48.3286004940139,15.020544054083574,0.0,9.924263333333334,0.021457920077262247,246182,PA,A-246183,MapQuest,2,2016-09-19 09:34:07,2016-09-19 10:19:07,39.919933,,-77.30774699999998,,R,Biglerville,US,,,,False,False,False,False,False,False,False,False,False,False,False,False,Day,Day,Day,Day
256,49.18155281708507,16.093440057946687,0.0,22.208892000000002,0.010090003733584783,587797,MN,A-587798,MapQuest,3,2019-02-08 12:08:05,2019-02-08 12:37:47,45.33638,,-93.004669,,R,Wyoming,US,63.0,West,Clear,False,False,False,False,False,False,False,False,False,False,False,False,Day,Day,Day,Day
257,48.16766609343443,16.093440057946687,0.4441789455993285,13.035654,0.008571625766531983,2177099,WA,A-2177100,Bing,2,2018-01-19 10:20:13,2018-01-19 16:20:13,47.15845,47.15905,-122.39822,-122.40402,R,Tacoma,US,99.0,South,Scattered Clouds,False,False,False,False,False,False,False,False,False,False,False,False,Day,Day,Day,Day
258,48.47344145453542,16.093440057946687,0.0,13.035654,9.249145780753795e-05,1610042,GA,A-1610043,MapQuest,3,2017-09-08 14:46:40,2017-09-08 15:16:21,32.541199,,-83.743721,,R,Fort Valley,US,39.0,ENE,Partly Cloudy,False,False,False,False,False,False,False,False,False,False,False,False,Day,Day,Day,Day
259,48.21594641360827,16.093440057946687,0.0,13.035654,4.6036273872439454e-05,160243,NE,A-160244,MapQuest,2,2016-06-29 18:39:53,2016-06-29 19:24:53,41.299137,,-96.032677,,R,Omaha,US,67.0,SE,Mostly Cloudy,False,False,False,False,False,False,False,False,False,False,False,False,Day,Day,Day,Day
260,48.40906769430362,16.093440057946687,0.0,18.50741,0.0,1503345,VA,A-1503346,MapQuest,3,2017-11-16 17:31:11,2017-11-16 18:00:25,37.232643,,-80.23793,,R,Elliston,US,47.0,WNW,Clear,False,False,False,False,False,False,False,False,False,False,False,False,Night,Day,Day,Day
261,48.232039853666215,16.093440057946687,0.016093440057946686,14.805927999999998,0.023408640487971047,325661,MI,A-325662,MapQuest,2,2017-02-06 13:42:30,2017-02-06 14:13:46,42.944073,,-83.676445,,R,Grand Blanc,US,57.0,SSW,Partly Cloudy,False,False,False,False,False,False,False,False,False,False,False,False,Day,Day,Day,Day
262,48.60218897499899,16.093440057946687,0.0,12.391918,0.00536448017007445,716541,AL,A-716542,MapQuest,3,2018-12-17 17:19:41,2018-12-17 17:49:07,33.52108,,-86.826347,,R,Birmingham,US,74.0,Calm,Partly Cloudy,False,False,False,False,False,False,False,False,False,False,False,False,Night,Night,Day,Day
263,48.21594641360827,14.484096052152017,0.0,24.1401,0.0,1472385,MI,A-1472386,MapQuest,2,2017-10-31 07:53:39,2017-10-31 08:23:33,42.970779,,-85.688232,,R,Grand Rapids,US,76.0,West,Light Snow,False,False,False,False,False,False,False,False,False,False,False,False,Night,Day,Day,Day
264,48.34469393407184,16.093440057946687,0.016093440057946686,14.805927999999998,0.03642199536811202,53703,CA,A-53704,MapQuest,2,2016-12-02 21:49:46,2016-12-02 22:34:32,33.366238,,-117.249924,,L,Fallbrook,US,22.0,NE,Clear,False,False,False,False,False,False,False,False,False,False,False,False,Night,Night,Night,Night
265,48.296413613898004,16.093440057946687,0.016093440057946686,9.334171999999999,0.019312127743896842,17487,CA,A-17488,MapQuest,3,2016-11-18 11:01:26,2016-11-18 11:30:32,37.970802,,-122.320351,,R,San Pablo,US,55.0,Variable,Clear,False,False,False,False,False,False,False,False,False,False,False,False,Day,Day,Day,Day
266,48.97233809633176,16.093440057946687,0.016093440057946686,26.787176945872794,0.004974336330542375,323420,SC,A-323421,MapQuest,3,2017-02-10 05:44:28,2017-02-10 06:14:21,33.606262,,-81.843491,,R,Graniteville,US,86.0,Calm,Clear,False,False,False,False,False,False,False,False,False,False,False,False,Night,Night,Night,Night
267,48.74702993552051,16.093440057946687,0.0,5.63269,0.0,1365716,PA,A-1365717,MapQuest,2,2018-01-08 06:50:33,2018-01-08 07:35:21,40.198788,,-75.256813,,R,Ambler,US,73.0,SSW,Clear,False,False,False,False,False,False,False,False,False,False,False,False,Night,Night,Day,Day
268,48.34469393407184,11.26540804056268,0.0,25.910374,0.054425053189390594,548220,GA,A-548221,MapQuest,2,2019-03-22 08:30:54,2019-03-22 09:30:39,33.848869,,-84.430977,,R,Atlanta,US,61.0,WNW,Clear,False,False,False,False,False,False,False,False,False,False,False,False,Day,Day,Day,Day
269,47.99063825279701,16.093440057946687,0.25266700890976296,20.438617999999998,0.10303488135833552,1944008,IL,A-1944009,Bing,2,2017-06-15 11:19:02,2017-06-15 17:19:02,41.93886,41.93745,-87.70761,-87.70521,R,Chicago,US,66.0,West,Mostly Cloudy,False,False,False,False,False,False,False,False,False,False,True,False,Day,Day,Day,Day
270,48.0550120130288,16.093440057946687,0.0,20.438617999999998,0.13653674690204923,1454843,MA,A-1454844,MapQuest,3,2017-12-20 16:19:31,2017-12-20 17:19:18,42.49593,,-71.17823800000002,,R,Burlington,US,39.0,WNW,Scattered Clouds,False,False,False,False,False,False,False,False,False,False,False,False,Night,Day,Day,Day
271,48.39297425424568,14.484096052152017,0.0,12.913022332504974,0.03218688011589337,968905,GA,A-968906,MapQuest,3,2018-08-18 13:19:22,2018-08-18 13:49:00,32.662319000000004,,-84.980644,,R,Fortson,US,91.0,Calm,Light Rain,False,False,False,False,False,False,False,False,False,False,False,False,Day,Day,Day,Day
272,48.66656273523077,16.093440057946687,11.313688698392987,9.334171999999999,0.0,513998,MN,A-513999,MapQuest,2,2019-03-04 06:38:53,2019-03-04 07:08:28,45.491875,,-94.151924,,R,Saint Cloud,US,82.0,SW,Clear,False,False,False,False,False,False,False,False,False,False,False,False,Night,Day,Day,Day
273,48.03891857297086,16.093440057946687,0.0,16.737136,0.0,1226594,AZ,A-1226595,MapQuest,2,2018-04-26 09:48:29,2018-04-26 10:48:10,33.679634,,-112.402924,,L,Surprise,US,17.0,SSW,Clear,False,False,False,False,False,False,False,False,False,False,False,False,Day,Day,Day,Day
274,48.586095534941045,16.093440057946687,0.0,9.334171999999999,6.625393647764305e-05,1000797,SC,A-1000798,MapQuest,2,2018-07-04 07:48:26,2018-07-04 08:18:10,33.779652,,-80.354362,,L,Sumter,US,89.0,Variable,Scattered Clouds,False,False,False,False,False,False,False,False,False,False,False,False,Day,Day,Day,Day
275,48.2642267337821,16.093440057946687,0.05310835219122406,13.174389969730392,0.011633965409495893,1855841,CA,A-1855842,Bing,2,2016-10-03 07:58:53,2016-10-03 13:58:53,34.08203,34.08173,-118.29672,-118.29628,R,Los Angeles,US,75.0,Calm,Clear,False,False,False,False,False,False,False,False,False,False,False,False,Day,Day,Day,Day
276,47.749236651927816,16.093440057946687,0.0,13.035654,0.0003626690758979838,490331,WA,A-490332,MapQuest,2,2017-06-07 19:31:17,2017-06-07 19:59:03,47.660557,,-122.345619,,R,Seattle,US,44.0,WSW,Mostly Cloudy,False,False,False,False,False,False,False,False,False,True,False,False,Day,Day,Day,Night
277,48.68265617528872,16.093440057946687,0.0,7.402963999999999,0.0031447858519876304,786669,SC,A-786670,MapQuest,3,2018-11-21 10:48:45,2018-11-21 11:48:24,32.750645,,-80.828445,,R,Yemassee,US,62.0,North,Clear,False,False,False,False,False,False,False,False,False,False,False,False,Day,Day,Day,Day
278,48.296413613898004,16.093440057946687,0.0,9.334171999999999,0.019312127743896842,1197044,CA,A-1197045,MapQuest,2,2018-04-12 01:09:19,2018-04-12 01:53:59,33.765926,,-117.937859,,R,Garden Grove,US,78.0,South,Clear,False,False,False,False,False,False,False,False,False,False,False,False,Night,Night,Night,Night
279,47.82970385221755,16.093440057946687,0.016093440057946686,18.50741,0.0011985356943929172,419703,MI,A-419704,MapQuest,2,2017-05-05 06:40:54,2017-05-05 07:10:46,42.552307,,-83.02906,,L,Sterling Heights,US,91.0,North,Light Rain,False,False,False,False,False,False,False,False,False,False,False,False,Day,Day,Day,Day
280,48.03891857297086,8.046720028973343,0.0,18.50741,0.4875178248842907,268409,TX,A-268410,MapQuest,2,2017-01-05 17:07:33,2017-01-05 17:46:55,29.73122,,-95.559776,,L,Houston,US,82.0,North,Overcast,False,False,False,False,False,False,False,False,False,False,True,False,Day,Day,Day,Day
281,48.0550120130288,16.093440057946687,0.33152486519370167,11.104446000000001,0.0,1901803,CA,A-1901804,Bing,2,2017-02-16 19:14:12,2017-02-17 01:14:12,37.715151,37.71795,-122.47183,-122.47315,L,San Francisco,US,77.0,West,Partly Cloudy,False,False,False,False,False,False,False,False,False,False,False,False,Night,Night,Night,Day
282,48.47344145453542,16.093440057946687,0.0,22.208892000000002,0.0187756796718624,1187050,NY,A-1187051,MapQuest,3,2018-04-09 04:49:59,2018-04-09 05:19:59,40.856537,,-73.826332,,R,Bronx,US,48.0,NW,Partly Cloudy,False,False,False,False,False,False,False,False,False,False,False,False,Night,Night,Night,Night
283,48.68265617528872,16.093440057946687,0.0,5.63269,0.0,784508,LA,A-784509,MapQuest,2,2018-11-20 18:11:04,2018-11-20 18:55:49,30.432772,,-91.057465,,L,Baton Rouge,US,64.0,North,Clear,False,False,False,False,False,False,False,False,False,False,False,False,Night,Night,Night,Day
284,48.28032017384005,16.093440057946687,0.0,22.208892000000002,0.03217653070501565,865799,TX,A-865800,MapQuest,2,2018-10-29 15:50:42,2018-10-29 16:20:28,29.379778,,-98.643219,,L,San Antonio,US,62.0,South,Partly Cloudy,False,False,False,False,False,False,False,False,False,False,False,False,Day,Day,Day,Day
285,48.28032017384005,16.093440057946687,0.0,11.104446000000001,0.0319402356201697,955047,MO,A-955048,MapQuest,2,2018-08-11 12:37:40,2018-08-11 13:22:09,38.729862,,-90.487106,,R,Saint Louis,US,39.0,North,Scattered Clouds,False,False,False,False,False,False,False,False,False,False,True,False,Day,Day,Day,Day
286,48.48953489459336,16.093440057946687,0.0,7.402963999999999,0.005852160121992762,1580171,AZ,A-1580172,MapQuest,2,2017-10-24 09:47:37,2017-10-24 10:47:24,33.589146,,-112.186058,,R,Glendale,US,13.0,NNE,Partly Cloudy,False,False,True,False,False,False,False,False,False,False,True,False,Day,Day,Day,Day
287,48.087198893144695,16.093440057946687,0.5858012181092593,22.208892000000002,0.0,1884447,TX,A-1884448,Bing,2,2017-03-27 08:54:48,2017-03-27 14:54:48,32.78457,32.7883,-96.80721,-96.80279,R,Dallas,US,69.0,NNW,Scattered Clouds,False,False,False,False,False,False,False,False,False,False,False,False,Day,Day,Day,Day
288,48.18375953349238,16.093440057946687,2.787383818036366,27.841582000000002,0.0,1860139,CA,A-1860140,Bing,2,2016-08-04 16:14:36,2016-08-04 22:14:36,37.7889,37.80811,-122.38756,-122.36719,R,San Francisco,US,70.0,West,Overcast,False,False,False,False,False,False,False,False,False,False,False,False,Day,Day,Day,Day
289,48.69874961534667,16.093440057946687,0.0,7.402963999999999,0.0,713442,AZ,A-713443,MapQuest,2,2018-12-14 08:13:58,2018-12-14 08:58:40,33.305222,,-112.014511,,R,Phoenix,US,44.0,ESE,Mostly Cloudy,False,False,True,False,False,False,False,False,False,False,True,False,Day,Day,Day,Day
290,48.586095534941045,14.484096052152017,0.0,14.716603266858618,0.0,890566,PA,A-890567,MapQuest,2,2018-09-11 20:59:50,2018-09-11 21:29:32,40.393639,,-77.882851,,L,Mount Union,US,90.0,Calm,Overcast,False,False,False,False,False,False,False,False,False,False,False,False,Night,Night,Night,Day
291,48.21594641360827,16.093440057946687,0.016093440057946686,9.280527333333334,0.0,431516,TX,A-431517,MapQuest,2,2017-04-17 17:56:28,2017-04-17 18:41:16,30.319752,,-97.738853,,L,Austin,US,84.0,Calm,Light Rain,False,False,False,False,False,False,False,False,False,False,False,False,Day,Day,Day,Day
292,48.21594641360827,14.484096052152017,0.0,19.204790666666668,0.0004636119038525323,1066048,CA,A-1066049,MapQuest,2,2018-06-08 09:39:15,2018-06-08 10:09:04,34.113499,,-118.082848,,L,San Gabriel,US,60.0,Calm,Clear,False,False,False,False,False,False,False,False,False,False,False,False,Day,Day,Day,Day
293,48.47344145453542,16.093440057946687,0.016093440057946686,14.805927999999998,0.0,128222,FL,A-128223,MapQuest,2,2016-11-17 10:44:56,2016-11-17 11:29:45,28.361097,,-81.422203,,L,Orlando,US,36.0,NNE,Clear,False,False,True,False,False,False,False,False,False,False,True,False,Day,Day,Day,Day
294,48.90796433609998,14.484096052152017,0.0,5.63269,0.005060814378675636,529376,WI,A-529377,MapQuest,2,2019-03-12 05:54:26,2019-03-12 07:10:20,42.698029,,-87.898483,,R,Sturtevant,US,81.0,WSW,Clear,False,False,False,False,False,False,False,False,False,False,False,False,Night,Night,Night,Day
295,48.103292333202646,9.656064034768011,0.4715377936978378,9.334171999999999,0.050588490883254546,2066359,CA,A-2066360,Bing,2,2018-10-23 06:32:16,2018-10-23 07:02:14,33.82594,33.82593,-118.23673,-118.24183700000002,R,Long Beach,US,87.0,NE,Overcast,False,False,False,False,True,False,False,False,False,False,False,False,Night,Night,Day,Day
296,48.376880814187736,12.874752046357347,0.0,11.748182,0.0,1665486,PA,A-1665487,MapQuest,2,2017-08-02 06:59:42,2017-08-02 07:44:28,40.134899,,-75.061821,,R,Bryn Athyn,US,87.0,Calm,Light Rain,False,False,False,False,False,False,False,False,False,False,True,False,Day,Day,Day,Day
297,48.61828241505694,16.093440057946687,0.6566123543642247,14.805927999999998,0.008183911563259092,2197590,MO,A-2197591,Bing,2,2017-11-06 07:44:43,2017-11-06 13:44:43,38.82367,38.82767,-94.51811,-94.52369,R,Belton,US,82.0,NE,Clear,False,False,False,False,True,False,False,False,False,False,False,False,Day,Day,Day,Day
298,48.69874961534667,16.093440057946687,0.09656064034768011,13.035654,0.00484062628482442,358427,FL,A-358428,MapQuest,2,2017-03-17 16:26:36,2017-03-17 16:56:11,26.604065,,-81.64679,,R,Lehigh Acres,US,28.0,East,Clear,False,False,False,False,False,False,False,False,False,False,False,False,Day,Day,Day,Day
299,48.441254574419524,16.093440057946687,0.0,14.859572666666667,0.0629162348702531,593103,CA,A-593104,MapQuest,2,2019-02-11 15:26:18,2019-02-11 15:56:06,33.943558,,-117.392441,,R,Riverside,US,22.0,Calm,Clear,False,False,False,False,False,False,False,False,False,False,False,False,Day,Day,Day,Day
300,48.28032017384005,16.093440057946687,0.0,11.104446000000001,0.0319402356201697,693558,AZ,A-693559,MapQuest,2,2018-12-04 14:33:41,2018-12-04 15:03:15,32.25069000000001,,-110.875359,,R,Tucson,US,24.0,NNW,Clear,False,False,False,False,False,False,False,False,False,False,True,False,Day,Day,Day,Day
301,48.376880814187736,16.093440057946687,0.0,7.402963999999999,0.09656064034768011,132791,FL,A-132792,MapQuest,3,2016-09-29 12:03:22,2016-09-29 12:48:09,27.96475,,-82.452522,,R,Tampa,US,84.0,SW,Scattered Clouds,False,False,False,False,False,False,False,False,False,False,False,False,Day,Day,Day,Day
302,49.2620200173748,16.093440057946687,0.0016093440057946685,22.208892000000002,0.009100432664191074,1890615,IL,A-1890616,Bing,2,2017-03-03 08:44:13,2017-03-03 14:44:13,42.037253,42.03725,-88.287807,-88.28782,R,Elgin,US,37.0,NW,Clear,False,False,False,False,False,False,False,False,False,False,True,False,Day,Day,Day,Day
303,48.21594641360827,16.093440057946687,0.23496422484602159,16.737136,0.0016754131717066408,1892867,NY,A-1892868,Bing,2,2017-03-10 20:46:08,2017-03-11 02:46:08,40.77198,40.77053,-73.91958000000002,-73.91755,R,Astoria,US,45.0,NNW,Overcast,False,False,False,False,False,False,False,False,False,False,False,False,Night,Night,Night,Night
304,48.74702993552051,16.093440057946687,0.0,31.543064,0.00010989783722808529,2210828,UT,A-2210829,Bing,3,2017-10-09 09:34:54,2017-10-09 15:34:54,40.69661,40.69661,-111.93893,-111.93893,R,West Valley City,US,61.0,NW,Clear,False,False,True,False,False,False,False,False,False,False,True,False,Day,Day,Day,Day
305,48.3286004940139,16.093440057946687,0.0,5.63269,0.03216618117830513,1446268,SC,A-1446269,MapQuest,2,2017-12-15 10:25:18,2017-12-15 11:23:56,34.10923,,-80.877884,,R,Columbia,US,56.0,Variable,Clear,False,False,False,False,False,False,False,False,False,False,False,False,Day,Day,Day,Day
306,48.2642267337821,16.093440057946687,0.0,24.1401,0.030654171415877597,509472,TX,A-509473,MapQuest,2,2017-07-18 13:57:21,2017-07-18 14:40:00,29.432611,,-98.482658,,L,San Antonio,US,38.0,SE,Mostly Cloudy,False,False,False,False,False,False,False,False,False,False,True,False,Day,Day,Day,Day
307,48.36078737412979,16.093440057946687,0.8787018271638891,25.910374,0.0,2233720,IL,A-2233721,Bing,3,2017-08-07 17:06:36,2017-08-07 23:06:36,41.835799,41.839009,-88.00223100000002,-87.992531,R,Oak Brook,US,57.0,NNE,Scattered Clouds,False,False,False,False,False,False,False,False,False,False,False,False,Day,Day,Day,Day
308,48.50562833465131,16.093440057946687,0.0,22.208892000000002,0.04011743009666429,1282480,SC,A-1282481,MapQuest,2,2018-03-25 13:35:46,2018-03-25 14:05:25,34.008492,,-80.487595,,L,Dalzell,US,61.0,NE,Overcast,False,False,False,False,False,False,False,False,False,False,False,False,Day,Day,Day,Day
309,48.42516113436157,16.093440057946687,0.8803111711696837,7.402963999999999,0.0,1839356,CA,A-1839357,Bing,2,2016-12-06 06:26:24,2016-12-06 12:26:24,37.41932,37.42142,-121.94406,-121.93445,R,San Jose,US,79.0,SW,Scattered Clouds,False,False,False,False,True,False,False,False,False,False,False,False,Night,Night,Day,Day
310,48.42516113436157,16.093440057946687,0.0,7.402963999999999,2.752204072909232e-05,1503947,SC,A-1503948,MapQuest,3,2017-11-16 19:54:31,2017-11-16 20:39:18,34.872032,,-82.224571,,R,Greer,US,43.0,North,Clear,False,False,False,False,False,False,False,False,False,False,True,False,Night,Night,Night,Night
311,48.13547921331853,11.26540804056268,13.566770459988659,27.841582000000002,0.16093440057946687,1276272,PA,A-1276273,MapQuest,2,2018-03-22 11:57:22,2018-03-22 12:26:17,39.98315,,-75.824028,,R,Coatesville,US,56.0,NW,Clear,False,False,False,False,False,False,False,False,False,False,True,False,Day,Day,Day,Day
312,48.16766609343443,12.874752046357347,0.9913559075695157,7.402963999999999,0.05592624356222186,1866730,CA,A-1866731,Bing,3,2016-06-27 08:23:47,2016-06-27 14:23:47,33.75264,33.74387,-117.83181,-117.83376,R,Santa Ana,US,78.0,NNE,Scattered Clouds,False,False,False,False,False,False,False,False,False,False,False,False,Day,Day,Day,Day
313,48.60218897499899,16.093440057946687,0.0,5.63269,0.0015574297068528082,1257228,TX,A-1257229,MapQuest,2,2018-03-13 05:12:52,2018-03-13 05:42:41,29.792917,,-95.523621,,R,Houston,US,54.0,North,Clear,False,False,False,False,False,False,False,False,False,False,False,False,Night,Night,Night,Night
314,48.3286004940139,16.093440057946687,0.0,7.402963999999999,0.0319402356201697,187137,MI,A-187138,MapQuest,2,2016-09-19 08:19:49,2016-09-19 08:49:49,42.972183,,-86.181976,,R,West Olive,US,87.0,South,Clear,False,False,False,False,False,False,False,False,False,False,True,False,Day,Day,Day,Day
315,48.55390865482515,16.093440057946687,1.7702784447408966,5.63269,0.0,1523985,OR,A-1523986,MapQuest,3,2017-11-27 12:09:29,2017-11-27 12:38:47,45.542995,,-122.677307,,R,Portland,US,83.0,Variable,Overcast,False,False,True,False,False,False,True,False,False,False,False,False,Day,Day,Day,Day
316,48.376880814187736,16.093440057946687,0.0,16.737136,0.0007371074987760097,535483,SC,A-535484,MapQuest,2,2019-03-15 09:28:41,2019-03-15 10:28:16,34.164429,,-80.944611,,R,Columbia,US,76.0,South,Clear,False,False,False,False,False,False,False,False,False,False,False,False,Day,Day,Day,Day
317,48.21594641360827,4.023360014486672,0.0,6.222781456201521,0.1236653786649129,805829,NY,A-805830,MapQuest,3,2018-10-02 20:02:32,2018-10-02 20:32:17,42.970272,,-73.80212399999998,,R,Ballston Spa,US,100.0,Calm,Rain,False,False,False,False,False,False,False,False,False,False,False,False,Night,Night,Night,Day
318,48.45734801447747,16.093440057946687,0.09495129634188544,17.14424023112199,0.3200096485837076,2221035,UT,A-2221036,Bing,2,2017-09-06 14:45:51,2017-09-06 20:45:51,40.638641,40.639486,-111.808255,-111.808162,R,Salt Lake City,US,31.0,Calm,Clear,False,False,False,False,False,False,False,False,False,False,False,False,Day,Day,Day,Day
319,48.28032017384005,2.414016008692003,0.0,9.334171999999999,0.0,826751,CO,A-826752,MapQuest,3,2018-10-10 07:07:11,2018-10-10 07:38:00,38.764744,,-104.775414,,R,Colorado Springs,US,96.0,ENE,Light Drizzle,False,False,False,False,False,False,False,False,False,False,False,False,Day,Day,Day,Day
320,48.3286004940139,15.020544054083574,0.0,9.924263333333334,0.021457920077262247,1157497,TX,A-1157498,MapQuest,3,2018-05-23 06:40:27,2018-05-23 07:09:57,29.716459000000004,,-95.499268,,R,Houston,US,,,,False,False,False,False,False,False,False,False,False,False,False,False,Day,Day,Day,Day
321,48.36078737412979,16.093440057946687,0.016093440057946686,25.964018666666668,0.00536448017007445,71038,CA,A-71039,MapQuest,3,2016-11-10 21:32:20,2016-11-10 22:02:04,33.750652,,-116.275032,,R,Indio,US,59.0,Calm,Clear,False,False,False,False,True,False,False,False,False,False,False,False,Night,Night,Night,Night
322,48.13547921331853,14.484096052152017,0.0,11.104446000000001,0.016093440057946686,1139229,FL,A-1139230,MapQuest-Bing,2,2018-05-15 18:04:33,2018-05-15 18:49:16,27.298796000000007,,-82.497566,,L,Sarasota,US,90.0,SSW,Light Rain,False,False,False,False,False,False,False,False,False,False,True,False,Day,Day,Day,Day
323,48.650469295172826,48.28032017384005,0.0,11.104975984221515,0.05322903777970449,1254562,CO,A-1254563,MapQuest,3,2018-03-12 07:01:21,2018-03-12 07:32:00,39.801956,,-104.984344,,R,Denver,US,50.0,Calm,Partly Cloudy,False,False,False,False,False,False,False,False,False,False,False,False,Night,Day,Day,Day
324,48.40906769430362,0.32186880115893374,0.0,5.646101138296528,0.0020689141119113936,1484825,CO,A-1484826,MapQuest-Bing,3,2017-11-06 07:47:38,2017-11-06 08:17:22,39.667637,,-104.925835,,R,Denver,US,100.0,Calm,Light Freezing Fog,False,False,False,False,False,False,False,False,False,False,False,False,Day,Day,Day,Day
325,48.875777455984085,16.093440057946687,0.0,7.402963999999999,0.002294602916504023,1383709,VA,A-1383710,MapQuest,3,2018-01-16 18:10:43,2018-01-16 18:40:24,38.886799,,-77.117447,,R,Arlington,US,57.0,South,Overcast,False,False,False,False,False,False,False,False,False,False,False,False,Night,Night,Day,Day
326,48.296413613898004,11.26540804056268,0.016093440057946686,13.035654,0.0,350861,CA,A-350862,MapQuest,2,2017-03-22 04:48:09,2017-03-22 05:32:46,34.376090999999995,,-119.477493,,R,Ventura,US,90.0,West,Overcast,False,False,False,False,False,False,False,False,False,False,False,False,Night,Night,Night,Night
